,city,region,country,lng,lat,population,continent
0,A Coruña,Galicia,ES,-8.3833,43.3667,245468,EU
1,Aachen,North Rhine-Westphalia,DE,6.0838,50.7762,248960,EU
2,Aalborg,Nordjylland,DK,9.9166,57.0337,122219,EU
3,Aalen,Baden-Württemberg,DE,10.0936,48.8372,68361,EU
4,Aalsmeer,Noord-Holland,NL,4.7625,52.2639,31728,EU
5,Aalst,Flanders,BE,4.0392,50.9383,85715,EU
6,Aalten,Gelderland,NL,6.5808,51.925,27011,EU
7,Aarau,Aargau,CH,8.0446,47.3923,21268,EU
8,Aarhus,Midtjylland,DK,10.2107,56.1572,237551,EU
9,Aasiaat,Qaasuitsup,GL,-52.8694,68.7097,3069,NA
10,Aba,Abia,NG,7.3667,5.1167,1530000,AF
11,Abakan,Khakasiya,RU,91.4167,53.7167,181709,EU
12,Abancay,Apurímac,PE,-72.8833,-13.6333,72277,SA
13,Abarkūh,Yazd,IR,53.2822,31.1289,27524,AS
14,Abasolo,Guanajuato,MX,-101.5289,20.4511,27389,NA
15,Abasolo,Tamaulipas,MX,-98.3733,24.0559,11862,NA
16,Abbeville,Hauts-de-France,FR,1.8358,50.1058,22837,EU
17,Abbottabad,Khyber Pakhtunkhwa,PK,73.2167,34.15,148587,AS
18,Abdurahmoni Jomí,Khatlon,TJ,68.689,37.9794,8925,AS
19,Abengourou,Comoé,CI,-3.4964,6.7297,104020,AF
20,Abeokuta,Ogun,NG,3.35,7.15,888924,AF
21,Abhar,Zanjān,IR,49.2181,36.1467,99285,AS
22,Abhā,‘Asīr,SA,42.5,18.2167,236157,AS
23,Abidjan,Abidjan,CI,-4.0267,5.3364,4980000,AF
24,Abinsk,Krasnodarskiy Kray,RU,38.1667,44.8667,38547,EU
25,Aboisso,Comoé,CI,-3.2,5.4667,37654,AF
26,Abomey,Zou,BJ,1.9914,7.1853,82154,AF
27,Abra Pampa,Jujuy,AR,-65.7,-22.7167,4480,SA
28,Abrantes,Santarém,PT,-8.1978,39.4644,39325,EU
29,Abu Dhabi,Abū Z̧aby,AE,54.3969,24.4511,1483000,AS
30,Abuja,Federal Capital Territory,NG,7.4914,9.0556,1235880,AF
31,Abéché,Ouaddaï,TD,20.8347,13.8331,76492,AF
32,Acacoyagua,Chiapas,MX,-92.6747,15.3408,8092,NA
33,Acacías,Meta,CO,-73.7647,3.9889,75252,SA
34,Acala,Chiapas,MX,-92.8069,16.5533,15001,NA
35,Acanceh,Yucatán,MX,-89.4524,20.8133,10968,NA
36,Acapulco de Juárez,Guerrero,MX,-99.8825,16.8636,673478,NA
37,Acarigua,Portuguesa,VE,-69.2019,9.5597,195637,SA
38,Acatic,Jalisco,MX,-102.91,20.7803,21530,NA
39,Acatlán,Jalisco,MX,-103.6014,20.4242,22261,NA
40,Acatzingo,Puebla,MX,-97.7822,18.9817,52078,NA
41,Acayucan,Veracruz,MX,-94.9103,17.9422,83817,NA
42,Accra,Greater Accra,GH,-0.187,5.6037,2291352,AF
43,Acevedo,Huila,CO,-75.8897,1.8047,39877,SA
44,Achkhoy-Martan,Chechnya,RU,45.2833,43.1939,23282,EU
45,Achí,Bolívar,CO,-74.5561,8.5692,23051,SA
46,Actopan,Veracruz,MX,-96.6192,19.5036,43388,NA
47,Acula,Veracruz,MX,-95.7833,18.5167,5350,NA
48,Acámbaro,Guanajuato,MX,-100.7314,20.0361,57972,NA
49,Acıgöl,Nevşehir,TR,34.5092,38.5503,5748,AS
50,Ad Dammām,Ash Sharqīyah,SA,50.1,26.4333,903312,AS
51,Ad Duraykīsh,Ţarţūs,SY,36.1346,34.8969,13244,AS
52,Ad Dīwānīyah,Al Qādisīyah,IQ,44.9247,31.9892,391600,AS
53,Ada,Ada,RS,20.1222,45.8014,10547,EU
54,Adana,Adana,TR,35.325,37.0,289919,AS
55,Addis Ababa,Ādīs Ābeba,ET,38.7369,9.0272,3041002,AF
56,Adelaide,South Australia,AU,138.6,-34.9275,1295714,OC
57,Aden,‘Adan,YE,45.0333,12.8,507355,AS
58,Adilcevaz,Bitlis,TR,42.7469,38.8058,6148,AS
59,Adjumani,Adjumani,UG,31.8097,3.3614,34700,AF
60,Ado-Ekiti,Ekiti,NG,5.2167,7.6167,446749,AF
61,Adrar,Adrar,DZ,-0.2939,27.8742,68276,AF
62,Adygeysk,Adygeya,RU,39.19,44.88,12745,EU
63,Adıyaman,Adıyaman,TR,38.2763,37.7644,22153,AS
64,Afyonkarahisar,Afyonkarahisar,TR,30.5386,38.7581,44026,AS
65,Afşin,Kahramanmaraş,TR,36.9167,38.25,8069,AS
66,Agadez,Agadez,NE,7.9828,16.9959,117770,AF
67,Agadir,Souss-Massa,MA,-9.5833,30.4167,421844,AF
68,Agartala,Tripura,IN,91.2667,23.8333,522613,AS
69,Agboville,Lagunes,CI,-4.2167,5.9333,81770,AF
70,Agdangan,Quezon,PH,121.9122,13.8758,12764,AS
71,Agen,Nouvelle-Aquitaine,FR,0.6212,44.2049,33012,EU
72,Agrigento,Sicilia,IT,13.5765,37.3111,59329,EU
73,Agrínio,Dytikí Elláda,GR,21.4,38.6167,46899,EU
74,Agua Blanca,Jutiapa,GT,-89.6494,14.4833,13571,NA
75,Agua Prieta,Sonora,MX,-109.5489,31.3258,91029,NA
76,Agua de Dios,Cundinamarca,CO,-74.6683,4.3781,10995,SA
77,Aguachica,Cesar,CO,-73.6153,8.3067,109621,SA
78,Aguadas,Caldas,CO,-75.4564,5.6092,21237,SA
79,Aguascalientes,Aguascalientes,MX,-102.296,21.876,934424,NA
80,Aguazul,Casanare,CO,-72.5467,5.1689,43183,SA
81,Aguiar da Beira,Guarda,PT,-7.5414,40.818,5473,EU
82,Agustín Codazzi,Cesar,CO,-73.2369,10.0367,49233,SA
83,Agía Paraskeví,Attikí,GR,23.8208,38.0053,59704,EU
84,Ahar,Āz̄arbāyjān-e Sharqī,IR,47.0603,38.475,100641,AS
85,Aheqi,Xinjiang,CN,78.4543,40.9372,11910,AS
86,Ahlat,Bitlis,TR,42.4877,38.7542,5879,AS
87,Ahmedabad,Gujarāt,IN,72.58,23.03,7717000,AS
88,Ahmetli,Manisa,TR,27.9447,38.5289,9790,AS
89,Ahram,Būshehr,IR,51.2744,28.8825,12182,AS
90,Ahuachapán,Ahuachapán,SV,-89.845,13.9214,110511,NA
91,Ahualulco de Mercado,Jalisco,MX,-103.9556,20.6992,23362,NA
92,Ahumada,Chihuahua,MX,-106.5122,30.6186,8575,NA
93,Ahvāz,Khūzestān,IR,48.6692,31.3203,1184788,AS
94,Aichach,Bavaria,DE,11.1333,48.45,21434,EU
95,Aihua,Yunnan,CN,100.135,24.4629,106054,AS
96,Ailan Mubage,Xinjiang,CN,81.3167,43.9167,526745,AS
97,Aioun,Hodh el Gharbi,MR,-9.6167,16.6667,1423,
98,Aipe,Huila,CO,-75.2375,3.2219,29177,AF
99,Aix-en-Provence,Provence-Alpes-Côte d’Azur,FR,5.4454,43.5263,143097,SA
100,Aizkraukle,Aizkraukles Novads,LV,25.255,56.6008,7044,EU
101,Ajaccio,Corsica,FR,8.7369,41.9267,70817,EU
102,Ajdovščina,Ajdovščina,SI,13.9052,45.8884,6843,EU
103,Ajdābiyā,Al Wāḩāt,LY,20.22,30.77,143833,EU
104,Ajka,Veszprém,HU,17.5522,47.1006,27995,AF
105,Akat Amnuai,Sakon Nakhon,TH,103.9859,17.5898,9013,EU
106,Akhalkalaki,Samtskhe-Javakheti,GE,43.4861,41.4056,8295,AS
107,Akhaltsikhe,Samtskhe-Javakheti,GE,42.9861,41.6389,14000,AS
108,Akhisar,Manisa,TR,27.8333,38.9167,46167,AS
109,Akhmeta,K’akheti,GE,45.2,42.0333,7105,AS
110,Akita,Akita,JP,140.1025,39.7197,302984,AS
111,Akjoujt,Inchiri,MR,-14.391,19.747,370,AS
112,Aksaray,Aksaray,TR,34.0297,38.3686,70359,AF
113,Aksay,Rostovskaya Oblast’,RU,39.8667,47.2667,45078,AS
114,Aksu,Xinjiang,CN,80.25,41.1664,535657,EU
115,Akure,Ondo,NG,5.195,7.25,847903,AS
116,Akyazı,Sakarya,TR,30.6253,40.6833,9090,AF
117,Akçaabat,Trabzon,TR,39.5833,41.0167,7600,AS
118,Akçadağ,Malatya,TR,37.9742,38.3442,5995,AS
119,Akçakoca,Düzce,TR,31.1297,41.0806,22416,AS
120,Akşehir,Konya,TR,31.4164,38.3592,25269,AS
121,Al Atārib,Ḩalab,SY,36.83,36.1389,10657,AS
122,Al Bayḑā’,Al Bayḑā’,YE,45.574,13.979,37821,AS
123,Al Bayḑā’,Al Jabal al Akhḑar,LY,21.755,32.7628,250000,AS
124,Al Başrah,Al Başrah,IQ,47.81,30.515,1326564,AF
125,Al Bāḩah,Al Bāḩah,SA,41.4677,20.0129,21983,AS
126,Al Fallūjah,Al Anbār,IQ,43.7833,33.35,326471,AS
127,Al Fayyūm,Al Fayyūm,EG,30.8333,29.3,315940,AS
128,Al Fujayrah,Al Fujayrah,AE,56.3347,25.1308,93673,AF
129,Al Fāw,Al Başrah,IQ,48.47,29.98,105080,AS
130,Al Ghardaqah,Al Baḩr al Aḩmar,EG,33.8117,27.2578,160901,AS
131,Al Ghayz̧ah,Al Mahrah,YE,52.1638,16.2394,27404,AF
132,Al Jawf,Al Kufrah,LY,23.3,24.2167,24132,AS
133,Al Karak,Al Karak,JO,35.7,31.1833,21678,AF
134,Al Khārjah,Al Wādī al Jadīd,EG,30.55,25.44,49991,AS
135,Al Kūfah,An Najaf,IQ,44.4,32.03,166100,AF
136,Al Kūt,Wāsiţ,IQ,45.8304,32.4907,321521,AS
137,Al Mafraq,Al Mafraq,JO,36.2333,32.2833,57118,AS
138,Al Manşūrah,Ad Daqahlīyah,EG,31.3833,31.05,960423,AS
139,Al Marj,Al Marj,LY,20.83,32.5005,169540,AF
140,Al Mayādīn,Dayr az Zawr,SY,40.4533,35.0208,48922,AF
141,Al Mazra‘ah,As Suwaydā’,SY,36.4833,32.7828,7547,AS
142,Al Maḩwīt,Al Maḩwīt,YE,43.5453,15.4694,10593,AS
143,Al Minyā,Al Minyā,EG,30.75,28.0833,236043,AS
144,Al Mukallā,Ḩaḑramawt,YE,49.1333,14.5333,144137,AF
145,Al Musayfirah,Dar‘ā,SY,36.3386,32.6322,10466,AS
146,Al Musayyib,Bābil,IQ,44.29,32.7786,76454,AS
147,Al Muzayrīb,Dar‘ā,SY,36.0266,32.7109,12640,AS
148,Al Mālikīyah,Al Ḩasakah,SY,42.0822,37.1031,39000,AS
149,Al Qaryatayn,Ḩimş,SY,37.2406,34.2294,37820,AS
150,Al Qunayţirah,Al Qunayţirah,SY,35.8239,33.1256,37022,AS
151,Al Quşayr,Ḩimş,SY,36.5797,34.5089,46772,AS
152,Al Quţaylibīyah,Al Lādhiqīyah,SY,36.0153,35.2889,5566,AS
153,Al Qāmishlī,Al Ḩasakah,SY,41.2167,37.05,184231,AS
154,Al Wakrah,Al Wakrah,QA,51.61,25.18,87970,AS
155,Al Ḩajar al Aswad,Rīf Dimashq,SY,36.3053,33.4581,101827,AS
156,Al Ḩasakah,Al Ḩasakah,SY,40.75,36.4833,128100,AS
157,Al Ḩayy,Wāsiţ,IQ,46.0433,32.1742,82900,AS
158,Al Ḩillah,Bābil,IQ,44.4333,32.4833,541034,AS
159,Al Ḩişn,Irbid,JO,35.88,32.487,35085,AS
160,Al Ḩudaydah,Al Ḩudaydah,YE,42.9511,14.8022,548433,AS
161,Al ‘Amādīyah,Dahūk,IQ,43.4878,37.0922,11000,AS
162,Al ‘Amārah,Maysān,IQ,47.15,31.8333,511500,AS
163,Al ‘Aqabah,Al ‘Aqabah,JO,35.0,29.5167,140000,AS
164,Al ‘Arīsh,Shamāl Sīnā’,EG,33.8006,31.1249,178651,AS
165,Alabel,Sarangani,PH,125.2868,6.1023,88294,AF
166,Alagir,North Ossetia,RU,44.2106,43.0417,20043,AS
167,Alajuela,Alajuela,CR,-84.2041,10.0311,48326,EU
168,Alajärvi,Etelä-Pohjanmaa,FI,23.8167,63.0,10006,NA
169,Alandroal,Évora,PT,-7.4,38.7,5843,EU
170,Alanya,Antalya,TR,31.9997,36.5436,12436,EU
171,Alaplı,Zonguldak,TR,31.3833,41.1833,12105,AS
172,Alashankou,Xinjiang,CN,82.5731,45.1714,40000,AS
173,Alavus,Etelä-Pohjanmaa,FI,23.6194,62.5861,12044,AS
174,Alaçam,Samsun,TR,35.595,41.61,7833,EU
175,Alaşehir,Manisa,TR,28.5167,38.35,16012,AS
176,Alba Iulia,Alba,RO,23.5728,46.0764,63536,AS
177,Albacete,Castille-La Mancha,ES,-1.8558,38.9956,172722,EU
178,Albania,Caquetá,CO,-75.8783,1.3289,6394,EU
179,Albany,New York,US,-73.7987,42.6664,586383,SA
180,Albarradas,Oaxaca,MX,-96.2,17.0667,7965,NA
181,Albergaria-a-Velha,Aveiro,PT,-8.4806,40.6936,25252,NA
182,Albertville,Auvergne-Rhône-Alpes,FR,6.3925,45.6758,19214,EU
183,Albi,Occitanie,FR,2.1464,43.9289,48993,EU
184,Albina,Marowijne,SR,-54.05,5.5,5247,EU
185,Alblasserdam,Zuid-Holland,NL,4.6667,51.8667,20069,SA
186,Albufeira,Faro,PT,-8.2458,37.0897,22794,EU
187,Albán,Cundinamarca,CO,-74.4383,4.8783,5956,EU
188,Alcalá,Valle del Cauca,CO,-75.7825,4.6736,23195,SA
189,Alcanena,Santarém,PT,-8.6667,39.4667,13868,SA
190,Alcantara,Cebu,PH,123.4047,9.9715,16910,EU
191,Alchevsk,Luhans’ka Oblast’,UA,38.7983,48.4672,105398,AS
192,Alcobaça,Leiria,PT,-8.975,39.55,56693,EU
193,Alcochete,Setúbal,PT,-8.9608,38.7553,17569,EU
194,Alcácer do Sal,Setúbal,PT,-8.5133,38.3725,13046,EU
195,Aldama,Chihuahua,MX,-105.9111,28.8386,18642,EU
196,Aldama,Tamaulipas,MX,-98.0736,22.9194,13661,NA
197,Aleg,Brakna,MR,-13.909,17.058,8388,NA
198,Aleksandrów Kujawski,Kujawsko-Pomorskie,PL,18.7,52.875,12359,AF
199,Alenquer,Lisboa,PT,-9.0167,39.05,43267,EU
200,Alençon,Normandie,FR,0.0931,48.4306,25775,EU
201,Aleppo,Ḩalab,SY,37.15,36.2,1916781,EU
202,Alessandria,Piedmont,IT,8.62,44.9133,93980,AS
203,Alexandria,Al Iskandarīyah,EG,29.9167,31.2,4870000,EU
204,Alexandria,Teleorman,RO,25.3333,43.9686,45434,AF
205,Alexandroúpoli,Anatolikí Makedonía kai Thráki,GR,25.8667,40.85,57812,EU
206,Alexándreia,Kentrikí Makedonía,GR,22.4454,40.6283,14821,EU
207,Alfândega da Fé,Bragança,PT,-6.9667,41.35,5104,EU
208,Alga,Aqtöbe,KZ,57.335,49.9032,28267,EU
209,Algeciras,Huila,CO,-75.3144,2.5219,24708,AS
210,Algiers,Alger,DZ,3.0586,36.7764,3415811,SA
211,Ali Sabieh,Ali Sabieh,DJ,42.7125,11.1558,37939,AF
212,Aliağa,İzmir,TR,26.9728,38.8008,17578,AF
213,Alibunar,Alibunar,RS,20.9658,45.0808,3431,AS
214,Alicante,Valencia,ES,-0.4831,38.3453,337304,EU
215,Alijó,Vila Real,PT,-7.4749,41.2764,11942,EU
216,Aljezur,Faro,PT,-8.8,37.3178,5884,EU
217,Aljustrel,Beja,PT,-8.1667,37.8833,9257,EU
218,Alkmaar,Noord-Holland,NL,4.744,52.6289,107822,EU
219,Allende,Coahuila de Zaragoza,MX,-100.8333,28.3333,21376,EU
220,Almada,Setúbal,PT,-9.1583,38.6803,174030,NA
221,Almaguer,Cauca,CO,-76.8561,1.9131,21374,EU
222,Almaty,Almaty,KZ,76.9,43.25,1916822,SA
223,Almeida,Guarda,PT,-6.9056,40.7259,7242,AS
224,Almeirim,Santarém,PT,-8.6333,39.2167,23376,EU
225,Almelo,Overijssel,NL,6.6667,52.3575,72459,EU
226,Almere,Flevoland,NL,5.2256,52.3758,207904,EU
227,Almería,Andalusia,ES,-2.4681,36.8403,200753,EU
228,Almirante,Bocas del Toro,PA,-82.4,9.3,8114,EU
229,Almodôvar,Beja,PT,-8.0603,37.5114,7449,NA
230,Almolonga,Quetzaltenango,GT,-91.4944,14.8122,17186,EU
231,Almoloya,Hidalgo,MX,-98.4,19.7,10638,NA
232,Almoloya de Alquisiras,México,MX,-99.85,18.85,14196,NA
233,Almyrós,Thessalía,GR,22.7606,39.1803,7955,NA
234,Alor Setar,Kedah,MY,100.3667,6.1167,217000,EU
235,Alotau,Milne Bay,PG,150.4333,-10.3167,11624,AS
236,Alotenango,Sacatepéquez,GT,-90.8058,14.4878,17369,OC
237,Alphen aan den Rijn,Zuid-Holland,NL,4.65,52.1333,110986,NA
238,Alpiarça,Santarém,PT,-8.585,39.2593,7702,EU
239,Alquízar,Artemisa,CU,-82.5828,22.8067,29616,EU
240,Alta,Finnmark,NO,23.2714,69.9686,15342,NA
241,Alta Gracia,Córdoba,AR,-64.4333,-31.6667,48140,EU
242,Altagracia de Orituco,Guárico,VE,-66.38,9.8504,40052,SA
243,Altamira,Tamaulipas,MX,-97.8694,22.3375,59536,SA
244,Altamirano,Chiapas,MX,-92.0389,16.7361,9200,NA
245,Altar,Sonora,MX,-111.8353,30.7136,8439,NA
246,Altay,Govĭ-Altay,MN,96.2572,46.3728,15800,NA
247,Altay,Xinjiang,CN,88.1166,47.8666,142000,AS
248,Altdorf,Uri,CH,8.6394,46.8806,9401,AS
249,Altenburg,Thuringia,DE,12.4333,50.985,32074,EU
250,Altenkirchen,Rhineland-Palatinate,DE,7.6456,50.6872,6263,EU
251,Altepexi,Puebla,MX,-97.3004,18.3676,21100,EU
252,Altkirch,Grand Est,FR,7.2394,47.6231,5698,NA
253,Alto Río Senguer,Chubut,AR,-70.8234,-45.0419,1570,EU
254,Altos del Rosario,Bolívar,CO,-74.1636,8.7914,13669,SA
255,Altstätten,Sankt Gallen,CH,9.5488,47.378,11730,SA
256,Altötting,Bavaria,DE,12.6759,48.2264,10119,EU
257,Alvaiázere,Leiria,PT,-8.3833,39.8333,7287,EU
258,Alvarado,Tolima,CO,-74.9533,4.5672,8873,EU
259,Alvarado,Veracruz,MX,-95.7572,18.7811,52927,SA
260,Alytus,Alytaus Miestas,LT,24.0492,54.4014,49888,NA
261,Alzey,Rhineland-Palatinate,DE,8.1161,49.7517,18535,EU
262,Alès,Occitanie,FR,4.0817,44.1281,40802,EU
263,Alīgūdarz,Lorestān,IR,49.6947,33.4006,78690,EU
264,Alūksne,Alūksnes Novads,LV,27.0503,57.4239,6535,AS
265,Am-Timan,Salamat,TD,20.2833,11.0333,38261,EU
266,Amadora,Lisboa,PT,-9.2333,38.75,175136,AF
267,Amagá,Antioquia,CO,-75.7028,6.0383,30376,EU
268,Amahai,Maluku,ID,128.919,-3.3331,47653,SA
269,Amalfi,Antioquia,CO,-75.0767,6.9092,22714,AS
270,Amarante,Porto,PT,-8.0833,41.2667,56264,SA
271,Amares,Braga,PT,-8.35,41.6333,18889,EU
272,Amasra,Bartın,TR,32.3864,41.7494,6085,EU
273,Amasya,Amasya,TR,35.8333,40.65,32900,AS
274,Amatenango de la Frontera,Chiapas,MX,-92.1167,15.4333,30732,AS
275,Amatenango del Valle,Chiapas,MX,-92.4333,16.5333,9913,NA
276,Amatepec,México,MX,-100.15,18.65,27026,NA
277,Amatitlán,Guatemala,GT,-90.6247,14.4741,125000,NA
278,Amatitán,Jalisco,MX,-103.7167,20.8333,15344,NA
279,Amatlán de los Reyes,Veracruz,MX,-96.9149,18.8457,9123,NA
280,Amatán,Chiapas,MX,-92.8167,17.3667,19348,NA
281,Ambalema,Tolima,CO,-74.7639,4.7817,7563,NA
282,Ambato,Tungurahua,EC,-78.6197,-1.2417,165185,SA
283,Ambatondrazaka,Toamasina,MG,48.4167,-17.8329,43134,SA
284,Amberg,Bavaria,DE,11.8483,49.4444,41970,AF
285,Ambert,Auvergne-Rhône-Alpes,FR,3.7417,45.5494,6634,EU
286,Ambon,Maluku,ID,128.17,-3.705,372249,EU
287,Ambrolauri,Rach’a-Lechkhumi da Kvemo Svaneti,GE,43.15,42.5194,2047,AS
288,Amealco,Querétaro,MX,-100.1439,20.1881,56457,AS
289,Ameca,Jalisco,MX,-104.0431,20.5486,36156,NA
290,Amecameca de Juárez,México,MX,-98.7665,19.1238,31687,NA
291,Amersfoort,Utrecht,NL,5.38,52.15,156286,NA
292,Amiens,Hauts-de-France,FR,2.299,49.892,133891,EU
293,Amioûn,Liban-Nord,LB,35.8097,34.2994,10000,EU
294,Amlash,Gīlān,IR,50.1864,37.0975,15047,AS
295,Amman,Al ‘Āşimah,JO,35.9333,31.95,4007526,AS
296,Amnat Charoen,Amnat Charoen,TH,104.6223,15.8758,25858,AS
297,Amstelveen,Noord-Holland,NL,4.8581,52.3019,91675,AS
298,Amsterdam,Noord-Holland,NL,4.8833,52.3667,862965,EU
299,Amstetten,Niederösterreich,AT,14.8667,48.1167,23656,EU
300,Amuntai,Kalimantan Selatan,ID,115.2494,-2.4177,41554,EU
301,An Nabk,Rīf Dimashq,SY,36.7344,34.025,52502,AS
302,An Najaf,An Najaf,IQ,44.3396,32.029,724700,AS
303,An Nāşirīyah,Dhī Qār,IQ,46.2575,31.0439,541600,AS
304,Anaco,Anzoátegui,VE,-64.4667,9.4333,162704,AS
305,Anadia,Aveiro,PT,-8.4333,40.4333,29150,SA
306,Anadyr,Chukotskiy Avtonomnyy Okrug,RU,177.5167,64.7333,15604,EU
307,Anamur,Mersin,TR,32.8261,36.0836,11246,EU
308,Anapa,Krasnodarskiy Kray,RU,37.3167,44.8944,81447,AS
309,Anapoima,Cundinamarca,CO,-74.5361,4.5503,14519,EU
310,Ancona,Marche,IT,13.5167,43.6167,100924,SA
311,Anda,Bohol,PH,124.576,9.744,17778,EU
312,Anda,Heilongjiang,CN,125.3252,46.4078,520000,AS
313,Andes,Antioquia,CO,-75.8803,5.6556,43269,AS
314,Andijon,Andijon,UZ,72.35,40.7,441700,SA
315,Andkhōy,Fāryāb,AF,65.1167,36.95,37887,AS
316,Andong,Gyeongbuk,KR,128.725,36.5656,162180,AS
317,Andorra la Vella,Andorra la Vella,AD,1.5,42.5,22615,AS
318,Andria,Puglia,IT,16.3083,41.2317,99857,EU
319,Andrijevica,Andrijevica,ME,19.7919,42.7339,1073,EU
320,Andīmeshk,Khūzestān,IR,48.35,32.45,135116,EU
321,Anenii Noi,Anenii Noi,MD,29.2308,46.8817,10872,AS
322,Ang Thong,Ang Thong,TH,100.4574,14.5926,13277,EU
323,Angeles City,Angeles,PH,120.5847,15.1472,462928,AS
324,Angers,Pays de la Loire,FR,-0.5542,47.4736,154508,AS
325,Angol,Araucanía,CL,-72.7086,-37.7988,48608,EU
326,Angostura,Sinaloa,MX,-108.1622,25.3653,5086,SA
327,Angoulême,Nouvelle-Aquitaine,FR,0.16,45.65,41711,NA
328,Ankara,Ankara,TR,32.85,39.93,77168,EU
329,Ankaran,Ankaran,SI,13.7379,45.5793,3224,AS
330,Anlu,Hubei,CN,113.6783,31.2575,720000,EU
331,Anna Paulowna,Noord-Holland,NL,4.8167,52.85,7380,AS
332,Annaba,Annaba,DZ,7.7667,36.9,257359,EU
333,Annaberg-Buchholz,Saxony,DE,13.0022,50.58,19769,AF
334,Annapolis,Maryland,US,-76.5047,38.9706,39223,EU
335,Annecy,Auvergne-Rhône-Alpes,FR,6.133,45.916,128199,NA
336,Anolaima,Cundinamarca,CO,-74.4647,4.7633,12911,EU
337,Anorí,Antioquia,CO,-75.1469,7.0736,16447,SA
338,Anqing,Anhui,CN,117.0333,30.5,4723000,SA
339,Ansbach,Bavaria,DE,10.5833,49.3,41847,AS
340,Ansião,Leiria,PT,-8.4333,39.9167,13128,EU
341,Ansongo,Gao,ML,0.5028,15.665,32709,EU
342,Antalya,Antalya,TR,30.6956,36.9081,71833,AF
343,Antananarivo,Antananarivo,MG,47.5214,-18.9386,2610000,AS
344,Antigua Guatemala,Sacatepéquez,GT,-90.7337,14.5567,59091,AF
345,Antipolo,Rizal,PH,121.1763,14.5842,887399,NA
346,Antofagasta,Antofagasta,CL,-70.398,-23.6464,348517,AS
347,Antony,Île-de-France,FR,2.2975,48.7539,62858,SA
348,Antsirabe,Antananarivo,MG,47.0333,-19.8667,257163,EU
349,Antsiranana,Antsiranana,MG,49.3115,-12.2765,82937,AF
350,Antsohihy,Mahajanga,MG,47.9834,-14.8661,21290,AF
351,Antwerp,Flanders,BE,4.3997,51.2211,529247,AF
352,Anuradhapura,North Central,LK,80.4108,8.335,63208,EU
353,Anykščiai,Anykščiai,LT,25.1072,55.5344,8491,AS
354,Ao Luek,Krabi,TH,98.7211,8.378,5719,EU
355,Aomori,Aomori,JP,140.7475,40.8222,425962,AS
356,Aosta,Valle d’Aosta,IT,7.3206,45.7372,34082,AS
357,Apan,Hidalgo,MX,-98.4333,19.7,39247,EU
358,Apapa,Lagos,NG,3.3589,6.4489,217362,NA
359,Apartadó,Antioquia,CO,-76.635,7.8847,121003,AF
360,Apaseo el Alto,Guanajuato,MX,-100.6167,20.45,64443,SA
361,Apeldoorn,Gelderland,NL,5.97,52.21,161156,NA
362,Apia,Tuamasaga,WS,-171.8333,-13.8333,37708,EU
363,Apizaco,Tlaxcala,MX,-98.1333,19.4167,81565,OC
364,Apolda,Thuringia,DE,11.5139,51.0247,22012,NA
365,Apostolove,Dnipropetrovs’ka Oblast’,UA,33.717,47.6595,13792,EU
366,Appenzell,Appenzell Innerrhoden,CH,9.4086,47.3306,5750,EU
367,Appingedam,Groningen,NL,6.8667,53.3167,11721,EU
368,Apsheronsk,Krasnodarskiy Kray,RU,39.7406,44.4608,39762,EU
369,Apt,Provence-Alpes-Côte d’Azur,FR,5.3964,43.8761,11011,EU
370,Aqtaū,Mangghystaū,KZ,51.1575,43.6525,183350,EU
371,Aqtöbe,Aqtöbe,KZ,57.2297,50.2836,387807,AS
372,Aquitania,Boyacá,CO,-72.8836,5.5194,16087,AS
373,Ar Ramthā,Irbid,JO,36.0069,32.5592,155693,SA
374,Ar Ramādī,Al Anbār,IQ,43.2992,33.4258,874543,AS
375,Ar Raqqah,Ar Raqqah,SY,39.01,35.95,299824,AS
376,Ar Rastan,Ḩimş,SY,36.7333,34.9167,61176,AS
377,Ar Rawḑah,Shabwah,YE,47.27,14.48,6649,AS
378,Ar Ruţbah,Al Anbār,IQ,40.2833,33.0333,22370,AS
379,Aracaju,Sergipe,BR,-37.05,-10.9167,632744,AS
380,Aracataca,Magdalena,CO,-74.185,10.5911,40400,SA
381,Arad,Arad,RO,21.3167,46.1667,159074,SA
382,Aralık,Adıyaman,TR,44.5192,39.8728,6098,EU
383,Aranyaprathet,Sa Kaeo,TH,102.5017,13.6928,16211,AS
384,Arapgir,Malatya,TR,38.4953,39.0411,6120,AS
385,Arar,Al Ḩudūd ash Shamālīyah,SA,41.0167,30.9833,27449,AS
386,Aratoca,Santander,CO,-73.0175,6.6956,8269,AS
387,Arauca,Arauca,CO,-70.7617,7.0903,96814,SA
388,Arauquita,Arauca,CO,-71.4272,7.0261,41309,SA
389,Araure,Portuguesa,VE,-69.2167,9.5667,188800,SA
390,Aračinovo,Aračinovo,MK,21.5617,42.0264,7315,SA
391,Arboletes,Antioquia,CO,-76.4272,8.8511,44560,EU
392,Arbuzynka,Mykolayivs’ka Oblast’,UA,31.3131,47.9067,6266,SA
393,Arcabuco,Boyacá,CO,-73.4375,5.7544,5240,EU
394,Arcachon,Nouvelle-Aquitaine,FR,-1.1689,44.6586,11567,SA
395,Arcos de Valdevez,Viana do Castelo,PT,-8.4167,41.85,22847,EU
396,Ardabīl,Ardabīl,IR,48.3,38.25,529374,EU
397,Ardahan,Ardahan,TR,42.7,41.1167,16251,AS
398,Ardakān,Yazd,IR,54.0186,32.3094,75271,AS
399,Ardestān,Eşfahān,IR,52.3725,33.3797,14698,AS
400,Ardeşen,Rize,TR,40.9857,41.1914,5488,AS
401,Areguá,Central,PY,-57.4169,-25.3,67487,AS
402,Arendal,Aust-Agder,NO,8.7667,58.4667,45065,SA
403,Arequipa,Arequipa,PE,-71.5369,-16.3988,1008290,EU
404,Arezzo,Tuscany,IT,11.8781,43.4631,99419,SA
405,Arganil,Coimbra,PT,-8.05,40.2167,12145,EU
406,Argao,Cebu,PH,123.6,9.8833,78187,EU
407,Argelia,Cauca,CO,-77.2492,2.2558,27670,AS
408,Argentan,Normandie,FR,-0.0203,48.7444,13730,SA
409,Argenteuil,Île-de-France,FR,2.25,48.95,110213,EU
410,Argostóli,Ionía Nísia,GR,20.4883,38.1739,9748,EU
411,Ariana,L’Ariana,TN,10.1956,36.8625,114486,EU
412,Arica,Arica y Parinacota,CL,-70.3211,-18.4784,202131,AF
413,Aridaía,Kentrikí Makedonía,GR,22.0583,40.975,6561,SA
414,Arjona,Bolívar,CO,-75.3447,10.255,78070,EU
415,Arkhangelsk,Arkhangel’skaya Oblast’,RU,40.5333,64.55,351488,SA
416,Arles,Provence-Alpes-Côte d’Azur,FR,4.6278,43.6767,51031,EU
417,Arlit,Agadez,NE,7.3833,18.7333,78651,EU
418,Arlon,Wallonia,BE,5.8167,49.6836,29733,AF
419,Armamar,Viseu,PT,-7.6833,41.1167,6297,EU
420,Armanāz,Idlib,SY,36.5,36.0833,10296,EU
421,Armavir,Armavir,AM,44.04,40.15,38635,AS
422,Armenia,Quindío,CO,-75.6725,4.5389,301226,AS
423,Arnhem,Gelderland,NL,5.9167,51.9833,148070,SA
424,Arnstadt,Thuringia,DE,10.9464,50.8342,27304,EU
425,Arouca,Aveiro,PT,-8.2449,40.9338,22359,EU
426,Arraiolos,Évora,PT,-7.9843,38.7229,7363,EU
427,Arras,Hauts-de-France,FR,2.78,50.292,41555,EU
428,Arruda dos Vinhos,Lisboa,PT,-9.0667,38.9833,13391,EU
429,Arsanjān,Fārs,IR,53.3083,29.9122,17642,EU
430,Arsuz,Hatay,TR,35.8867,36.4128,79782,AS
431,Artashat,Ararat,AM,44.5506,39.9539,21300,AS
432,Arteaga,Coahuila de Zaragoza,MX,-100.8333,25.45,8446,AS
433,Artemisa,Artemisa,CU,-82.7633,22.8136,59130,NA
434,Artigas,Artigas,UY,-56.4704,-30.4028,40658,NA
435,Artvin,Artvin,TR,41.8194,41.1822,8719,SA
436,Arua,Arua,UG,30.91,3.03,250000,AS
437,Arusha,Arusha,TZ,36.6833,-3.3667,416442,AF
438,Arvayheer,Övörhangay,MN,102.775,46.2639,20000,AF
439,Arāk,Markazī,IR,49.7,34.08,520944,AS
440,As Safīrah,Ḩalab,SY,37.3725,36.0769,106460,AS
441,As Salamīyah,Ḩamāh,SY,37.0531,35.0111,110683,AS
442,As Salţ,Al Balqā’,JO,35.7272,32.0392,88900,AS
443,As Samāwah,Al Muthanná,IQ,45.2833,31.3167,215000,AS
444,As Sukhnah,Ḩimş,SY,38.8721,34.8868,16173,AS
445,As Sulaymānīyah,As Sulaymānīyah,IQ,45.4333,35.55,676500,AS
446,As Suqaylibīyah,Ḩamāh,SY,36.38,35.3697,17313,AS
447,As Suwaydā’,As Suwaydā’,SY,36.5667,32.7,64730,AS
448,Asadābād,Kunaṟ,AF,71.1528,34.8742,48400,AS
449,Ascensión,Chihuahua,MX,-107.9964,31.0928,13456,AS
450,Aschaffenburg,Bavaria,DE,9.1478,49.9757,70527,NA
451,Ascoli Piceno,Marche,IT,13.5753,42.8547,48773,EU
452,Ash Shaykh ‘Uthmān,‘Adan,YE,45.0279,12.8866,105248,EU
453,Ash Shaţrah,Dhī Qār,IQ,46.1772,31.4175,161949,AS
454,Ash Shiḩr,Ḩaḑramawt,YE,49.6069,14.7608,68313,AS
455,Ashgabat,Ahal,TM,58.3833,37.95,19426,AS
456,Ashkezar,Yazd,IR,54.2044,32.0,19123,AS
457,Ashmyany,Hrodzyenskaya Voblasts’,BY,25.9375,54.425,16966,AS
458,Ashtarak,Aragatsotn,AM,44.3617,40.2975,21600,EU
459,Asipovichy,Mahilyowskaya Voblasts’,BY,28.65,53.3,29981,AS
460,Asker,Oslo,NO,10.4392,59.8331,61523,EU
461,Askim,Østfold,NO,11.1629,59.5832,14488,EU
462,Askola,Uusimaa,FI,25.6,60.5278,5104,EU
463,Asmara,Ma’ākel,ER,38.9167,15.3333,963000,EU
464,Assab,Debubawī K’eyih Bahrī,ER,42.7411,13.0078,74405,AF
465,Assen,Drenthe,NL,6.55,53.0,67580,AF
466,Assomada,Santa Catarina,CV,-23.6654,15.0949,12026,EU
467,Astara,Astara,AZ,48.875,38.44,16800,AF
468,Asten,Noord-Brabant,NL,5.7472,51.4031,16710,AS
469,Asti,Piedmont,IT,8.2069,44.9,76211,EU
470,Astrakhan,Aqmola,KZ,69.795,51.5228,6313,EU
471,Astrakhan,Astrakhanskaya Oblast’,RU,48.0167,46.3333,532504,AS
472,Astravyets,Hrodzyenskaya Voblasts’,BY,25.9553,54.6136,14147,EU
473,Asunción,Asunción,PY,-57.6333,-25.3,524190,EU
474,Asunción Mita,Jutiapa,GT,-89.7167,14.3333,40391,SA
475,Asunción Nochixtlán,Oaxaca,MX,-97.2233,17.4581,18525,NA
476,Aswān,Aswān,EG,32.8997,24.0889,267913,NA
477,Asyūţ,Asyūţ,EG,31.1714,27.1869,389307,AF
478,Aszód,Pest,HU,19.4894,47.6514,6204,AF
479,At Tall,Rīf Dimashq,SY,36.3106,33.6103,63554,EU
480,At-Bashy,Naryn,KG,75.7968,41.1725,15601,AS
481,Atakpamé,Plateaux,TG,1.12,7.53,80683,AS
482,Atar,Adrar,MR,-13.05,20.5167,24021,AF
483,Atarjea,Guanajuato,MX,-99.7183,21.2678,5610,AF
484,Atbasar,Aqmola,KZ,68.3667,51.8,29733,NA
485,Atengo,Jalisco,MX,-104.0833,20.2167,5475,AS
486,Atescatempa,Jutiapa,GT,-89.7417,14.175,15820,NA
487,Ath,Wallonia,BE,3.7769,50.6311,29164,NA
488,Ath Thawrah,Ar Raqqah,SY,38.5464,35.8344,84000,EU
489,Athens,Attikí,GR,23.7281,37.9842,664046,AS
490,Ati,Batha,TD,18.3403,13.2139,20695,EU
491,Atlanta,Georgia,US,-84.4224,33.7627,5449398,AF
492,Atlautla,México,MX,-98.7167,19.0,27663,NA
493,Atoyac de Álvarez,Guerrero,MX,-100.4333,17.2,20515,NA
494,Attapu,Attapu,LA,106.8333,14.8,19200,NA
495,Attard,Attard,MT,14.45,35.9,10930,AS
496,Atushi,Xinjiang,CN,76.1753,39.7114,240368,EU
497,Atyraū,Atyraū,KZ,51.8833,47.1167,290700,AS
498,Auch,Occitanie,FR,0.5855,43.6465,22200,AS
499,Auckland,Auckland,NZ,174.7833,-36.85,1346091,EU
500,Augsburg,Bavaria,DE,10.8983,48.3717,295830,OC
501,Augusta,Maine,US,-69.7319,44.3341,22116,EU
502,Augustów,Podlaskie,PL,22.9667,53.85,30153,NA
503,Aurich,Lower Saxony,DE,7.4836,53.4714,41991,EU
504,Aurillac,Auvergne-Rhône-Alpes,FR,2.4406,44.9261,25531,EU
505,Austin,Texas,US,-97.7522,30.3004,1687311,EU
506,Autlán de Navarro,Jalisco,MX,-104.3667,19.7667,60572,NA
507,Autun,Bourgogne-Franche-Comté,FR,4.2986,46.9511,13157,NA
508,Auxerre,Bourgogne-Franche-Comté,FR,3.5672,47.7986,34764,EU
509,Avallon,Bourgogne-Franche-Comté,FR,3.9083,47.49,6513,EU
510,Avanos,Nevşehir,TR,34.8467,38.715,5675,EU
511,Aveiro,Aveiro,PT,-8.6553,40.6389,78450,AS
512,Avellaneda,Buenos Aires,AR,-58.3678,-34.6625,24313,EU
513,Avellino,Campania,IT,14.7897,40.9153,53908,SA
514,Avignon,Provence-Alpes-Côte d’Azur,FR,4.8075,43.95,91729,EU
515,Avranches,Normandie,FR,-1.3569,48.6844,10246,EU
516,Aweil,Northern Bahr el Ghazal,SS,27.4,8.7666,46705,EU
517,Awka,Anambra,NG,7.0667,6.2,301657,AF
518,Axapusco,México,MX,-98.7972,19.7194,21915,AF
519,Ayacucho,Ayacucho,PE,-74.2244,-13.1631,180766,NA
520,Ayacucho,Buenos Aires,AR,-58.4882,-37.1525,17364,SA
521,Ayancık,Sinop,TR,34.5833,41.95,5320,SA
522,Ayapel,Córdoba,CO,-75.145,8.3125,47247,AS
523,Aybastı,Ordu,TR,37.3992,40.6867,7450,SA
524,Aydın,Aydın,TR,27.8453,37.8481,191037,AS
525,Aydıncık,Mersin,TR,33.35,36.1667,7040,AS
526,Ayotoxco de Guerrero,Puebla,MX,-97.4,20.1,8558,AS
527,Ayutla de los Libres,Guerrero,MX,-99.2167,16.9,15370,NA
528,Ayvacık,Samsun,TR,36.6319,41.0036,5375,NA
529,Ayvalık,Balıkesir,TR,26.7,39.3167,16283,AS
530,Az Zabadānī,Rīf Dimashq,SY,36.1003,33.7247,26285,AS
531,Az Zaqāzīq,Ash Sharqīyah,EG,31.5167,30.5833,285097,AS
532,Az Zarqā’,Az Zarqā’,JO,36.1,32.0833,481300,AF
533,Az Zubayr,Al Başrah,IQ,47.7081,30.3892,370000,AS
534,Az Zāwīyah,Az Zāwiyah,LY,12.72,32.7604,200000,AS
535,Azambuja,Lisboa,PT,-8.8667,39.0667,21814,AF
536,Azare,Bauchi,NG,10.19,11.6804,105687,EU
537,Aznā,Lorestān,IR,49.455,33.4539,47489,AF
538,Azogues,Cañar,EC,-78.8333,-2.7333,33848,AS
539,Azov,Rostovskaya Oblast’,RU,39.4167,47.1,80721,SA
540,Azua,Valdesia,DO,-70.74,18.46,91345,EU
541,Azul,Buenos Aires,AR,-59.85,-36.7833,55728,NA
542,Aígina,Attikí,GR,23.4275,37.7467,6867,SA
543,Aígio,Dytikí Elláda,GR,22.0833,38.25,20422,EU
544,Añatuya,Santiago del Estero,AR,-62.8333,-28.4667,14133,EU
545,Ağcabədi,Ağcabədi,AZ,47.4502,40.0489,39200,SA
546,Ağdam,Ağdam,AZ,46.9167,39.9833,3770,AS
547,Ağdaş,Ağdaş,AZ,47.4833,40.65,29600,AS
548,Ağrı,Ağrı,TR,43.0544,39.7225,24168,AS
549,Ağstafa,Ağstafa,AZ,45.45,41.1167,20200,AS
550,Ağsu,Ağsu,AZ,48.3928,40.5708,20200,AS
551,Aībak,Samangān,AF,68.0394,36.2534,4938,AS
552,Aş Şanamayn,Dar‘ā,SY,36.1842,33.0711,26268,AS
553,Aşkale,Erzurum,TR,40.6947,39.9211,6943,AS
554,Aţ Ţafīlah,Aţ Ţafīlah,JO,35.6044,30.8375,23512,AS
555,Aţ Ţūr,Janūb Sīnā’,EG,33.6167,28.2333,12733,AS
556,Baabda,Mont-Liban,LB,35.5333,33.8333,9000,AF
557,Baalbek,Baalbek-Hermel,LB,36.2086,34.0061,24000,AS
558,Baarle-Nassau,Noord-Brabant,NL,4.9333,51.45,6847,AS
559,Baarn,Utrecht,NL,5.2861,52.2125,24767,EU
560,Babaeski,Kırklareli,TR,27.0931,41.4325,13879,EU
561,Babahoyo,Los Ríos,EC,-79.5167,-1.8167,90191,AS
562,Babati,Manyara,TZ,35.7475,-4.2117,30975,SA
563,Babruysk,Mahilyowskaya Voblasts’,BY,29.2333,53.15,212200,AF
564,Babək,Babək,AZ,45.4114,39.1111,5600,EU
565,Baclayon,Bohol,PH,123.9135,9.6227,22461,AS
566,Bacolod,Bacolod,PH,122.9509,10.6765,600783,AS
567,Bacău,Bacău,RO,26.9167,46.5833,144307,AS
568,Bad Dürkheim,Rhineland-Palatinate,DE,8.1724,49.4618,18476,EU
569,Bad Ems,Rhineland-Palatinate,DE,7.7106,50.3381,9681,EU
570,Bad Fallingbostel,Lower Saxony,DE,9.6967,52.8675,11852,EU
571,Bad Hersfeld,Hesse,DE,9.7067,50.8683,29800,EU
572,Bad Homburg,Hesse,DE,8.6105,50.2292,54248,EU
573,Bad Kissingen,Bavaria,DE,10.0667,50.2,22444,EU
574,Bad Kreuznach,Rhineland-Palatinate,DE,7.8669,49.8469,50948,EU
575,Bad Neuenahr-Ahrweiler,Rhineland-Palatinate,DE,7.1133,50.5447,28251,EU
576,Bad Neustadt,Bavaria,DE,10.2161,50.3219,15411,EU
577,Bad Oldesloe,Schleswig-Holstein,DE,10.3742,53.8117,24744,EU
578,Bad Reichenhall,Bavaria,DE,12.8769,47.7247,18278,EU
579,Bad Salzungen,Thuringia,DE,10.2333,50.8117,20244,EU
580,Bad Schwalbach,Hesse,DE,8.0694,50.1401,11187,EU
581,Bad Segeberg,Schleswig-Holstein,DE,10.3089,53.9356,17267,EU
582,Bad Tölz,Bavaria,DE,11.5567,47.7603,18802,EU
583,Bad Zurzach,Aargau,CH,8.2933,47.5877,8476,EU
584,Badajoz,Extremadura,ES,-6.9753,38.8803,150610,EU
585,Baden-Baden,Baden-Württemberg,DE,8.2408,48.7619,55449,EU
586,Badian,Cebu,PH,123.3959,9.8694,43735,EU
587,Badulla,Uva,LK,81.0564,6.9847,42923,AS
588,Bafatá,Bafatá,GW,-14.6575,12.1719,22501,AS
589,Bafoulabé,Kayes,ML,-10.8322,13.8064,26823,AF
590,Bafoussam,Ouest,CM,10.4167,5.4667,290768,AF
591,Bafra,Samsun,TR,35.9069,41.5682,97452,AF
592,Baghdad,Baghdād,IQ,44.4167,33.35,6107000,AS
593,Baghlān,Baghlān,AF,68.7,36.1328,39228,AS
594,Bagnères-de-Bigorre,Occitanie,FR,0.1497,43.0642,7103,AS
595,Bago,Bago,MM,96.4981,17.3433,284179,EU
596,Bagrationovsk,Kaliningradskaya Oblast’,RU,20.6333,54.3833,6482,AS
597,Baguio City,Baguio,PH,120.5956,16.4152,366358,EU
598,Bahawalnagar,Punjab,PK,73.2536,29.9944,141935,AS
599,Bahawalpur,Punjab,PK,71.6722,29.3956,762111,AS
600,Bahir Dar,Āmara,ET,37.39,11.585,243300,AS
601,Bahçe,Osmaniye,TR,36.5825,37.2039,12917,AF
602,Bahía Blanca,Buenos Aires,AR,-62.2667,-38.7167,299101,AS
603,Bahía Honda,Artemisa,CU,-83.1639,22.9064,43483,SA
604,Bahār,Hamadān,IR,48.4414,34.9069,673405,NA
605,Bahşılı,Kırıkkale,TR,33.4716,39.8136,7907,AS
606,Baia Mare,Maramureş,RO,23.5819,47.6597,123738,AS
607,Baicheng,Guangxi,CN,106.6194,23.901,3669400,EU
608,Baicheng,Jilin,CN,122.832,45.6148,2032356,AS
609,Baicheng,Xinjiang,CN,81.8715,41.7957,49207,AS
610,Baidoa,Bay,SO,43.65,3.1167,129839,AS
611,Baiquan,Heilongjiang,CN,126.0819,47.6018,70472,AF
612,Baishan,Jilin,CN,126.4179,41.9377,1296127,AS
613,Baiyin,Gansu,CN,104.1766,36.5448,1708751,AS
614,Baião,Porto,PT,-8.0333,41.1667,20522,AS
615,Baja,Bács-Kiskun,HU,18.9536,46.1833,34788,EU
616,Bajestān,Khorāsān-e Raẕavī,IR,58.1844,34.5164,11741,EU
617,Bajina Bašta,Bajina Bašta,RS,19.5597,43.9731,26022,AS
618,Bakhchysarai,"Krym, Avtonomna Respublika",UA,33.8608,44.7528,27351,EU
619,Bakhmut,Donets’ka Oblast’,UA,38.0067,48.6044,75798,EU
620,Baku,Bakı,AZ,49.8352,40.3667,2181800,EU
621,Balad,Şalāḩ ad Dīn,IQ,44.1456,34.0147,80000,AS
622,Balakən,Balakən,AZ,46.4165,41.7186,8134,AS
623,Balancán,Tabasco,MX,-91.53,17.8,11895,AS
624,Balanga,Bataan,PH,120.5333,14.6833,104173,NA
625,Balassagyarmat,Nógrád,HU,19.2937,48.0712,14262,AS
626,Balatonalmádi,Veszprém,HU,18.0219,47.0292,8640,EU
627,Balatonfüred,Veszprém,HU,17.8833,46.95,12923,EU
628,Balboa,Cauca,CO,-77.2164,2.0406,26384,EU
629,Balcarce,Buenos Aires,AR,-58.2556,-37.8464,38823,SA
630,Balchik,Dobrich,BG,28.1662,43.4102,12421,SA
631,Baler,Aurora,PH,121.5625,15.7583,43785,EU
632,Balingen,Baden-Württemberg,DE,8.8506,48.2731,34505,AS
633,Balkanabat,Balkan,TM,54.365,39.5119,89785,EU
634,Balkh,Balkh,AF,66.8989,36.7581,77000,AS
635,Balmazújváros,Hajdú-Bihar,HU,21.35,47.6167,17109,AS
636,Balsthal,Solothurn,CH,7.6944,47.3164,6117,EU
637,Balta,Odes’ka Oblast’,UA,29.6225,47.9361,19353,EU
638,Baltiysk,Kaliningradskaya Oblast’,RU,19.9167,54.65,33317,EU
639,Balvi,Balvu Novads,LV,27.2667,57.1292,5840,EU
640,Balzan,Balzan,MT,14.4533,35.8975,3958,EU
641,Balzers,Balzers,LI,9.5,47.0667,4628,EU
642,Balıkesir,Balıkesir,TR,27.8842,39.6511,69341,EU
643,Bam,Kermān,IR,58.3583,29.1083,127396,AS
644,Bama,Borno,NG,13.69,11.5204,118121,AS
645,Bamako,Bamako,ML,-7.9922,12.6458,2009109,AF
646,Bambari,Ouaka,CF,20.6833,5.7667,41356,AF
647,Bamberg,Bavaria,DE,10.8917,49.8917,77592,AF
648,Bamenda,North-West,CM,10.1667,5.9333,269530,EU
649,Bamiantong,Heilongjiang,CN,130.5212,44.9164,330000,AF
650,Bamnet Narong,Chaiyaphum,TH,101.681,15.5034,7147,AS
651,Ban Bueng,Chon Buri,TH,101.1114,13.314,19346,AS
652,Ban Chang,Rayong,TH,101.0669,12.7209,27668,AS
653,Ban Dung,Udon Thani,TH,103.2623,17.704,15913,AS
654,Ban Haet,Khon Kaen,TH,102.7492,16.2,6722,AS
655,Ban Houayxay,Bokèo,LA,100.4167,20.2833,17687,AS
656,Ban Laem,Phetchaburi,TH,99.9767,13.2168,12541,AS
657,Ban Na San,Surat Thani,TH,99.3635,8.7997,19801,AS
658,Ban Phai,Khon Kaen,TH,102.7362,16.073,28913,AS
659,Ban Phue,Udon Thani,TH,102.4756,17.6874,7740,AS
660,Ban Pong,Ratchaburi,TH,99.883,13.8174,17298,AS
661,Ban Tak,Tak,TH,99.0742,17.05,6568,AS
662,Banamba,Koulikoro,ML,-7.45,13.55,30591,AS
663,Banaybanay,Davao Oriental,PH,126.0126,6.9699,44451,AF
664,Banda Aceh,Aceh,ID,95.3175,5.55,235305,AS
665,Bandar Lampung,Lampung,ID,105.2625,-5.4294,1166761,AS
666,Bandar Seri Begawan,Brunei and Muara,BN,114.9167,4.9167,50000,AS
667,Bandar ‘Abbās,Hormozgān,IR,56.25,27.2,526648,AS
668,Bandar-e Anzalī,Gīlān,IR,49.4667,37.4667,110643,AS
669,Bandar-e Būshehr,Būshehr,IR,50.8333,28.9667,195222,AS
670,Bandar-e Genāveh,Būshehr,IR,50.5167,29.5833,64110,AS
671,Bandar-e Māhshahr,Khūzestān,IR,49.1981,30.5589,162797,AS
672,Bandundu,Kwilu,CD,17.38,-3.31,118211,AS
673,Bandung,Jawa Barat,ID,107.5667,-6.95,2875673,AF
674,Bandırma,Balıkesir,TR,27.9725,40.3542,33116,AS
675,Banes,Holguín,CU,-75.7117,20.9697,34452,AS
676,Banfora,Cascades,BF,-4.7589,10.6308,117200,NA
677,Bang Ban,Phra Nakhon Si Ayutthaya,TH,100.4758,14.4247,11092,AF
678,Bang Bua Thong,Nonthaburi,TH,100.4263,13.9099,50141,AS
679,Bang Khla,Chachoengsao,TH,101.2105,13.7268,9311,AS
680,Bang Kruai,Nonthaburi,TH,100.4755,13.8042,42390,AS
681,Bang Len,Nakhon Pathom,TH,100.1719,14.0219,8429,AS
682,Bang Mun Nak,Phichit,TH,100.3792,16.0278,8448,AS
683,Bang Pa-in,Phra Nakhon Si Ayutthaya,TH,100.5813,14.22,7380,AS
684,Bang Phae,Ratchaburi,TH,99.9068,13.6983,16130,AS
685,Bang Racham,Sing Buri,TH,100.3235,14.8864,13937,AS
686,Bang Sai,Phra Nakhon Si Ayutthaya,TH,100.3037,14.3347,5277,AS
687,Bang Sao Thong,Samut Prakan,TH,100.7957,13.5812,23630,AS
688,Bangalore,Karnātaka,IN,77.5913,12.9791,13999000,AS
689,Bangar,Temburong,BN,115.0739,4.7086,626,AS
690,Bangassou,Mbomou,CF,22.819,4.737,31453,AS
691,Bangkok,Krung Thep Maha Nakhon,TH,100.5167,13.75,17573000,AF
692,Bangued,Abra,PH,120.6179,17.5965,50382,AS
693,Bangui,Bangui,CF,18.5628,4.3732,889231,AS
694,Banhā,Al Qalyūbīyah,EG,31.1797,30.4628,157701,AF
695,Banja Luka,"Srpska, Republika",BA,17.1833,44.7667,199191,AF
696,Banjar,Jawa Barat,ID,108.5333,-7.3667,182819,EU
697,Banjarmasin,Kalimantan Selatan,ID,114.5921,-3.319,692793,AS
698,Banjul,Banjul,GM,-16.5775,13.4531,31356,AS
699,Bannu,Khyber Pakhtunkhwa,PK,70.6056,32.9889,62191,AF
700,Banská Bystrica,Banskobystrický,SK,19.1453,48.7353,78327,AS
701,Banská Štiavnica,Banskobystrický,SK,18.8931,48.4586,10097,EU
702,Banyuwangi,Jawa Timur,ID,114.3696,-8.195,172424,EU
703,Baní,Valdesia,DO,-70.33,18.29,145595,AS
704,Banī Suwayf,Banī Suwayf,EG,31.0833,29.0667,193048,NA
705,Bar,Bar,ME,19.1,42.1,13719,AF
706,Bar,Vinnyts’ka Oblast’,UA,27.6831,49.0781,16136,EU
707,Bar-le-Duc,Grand Est,FR,5.1672,48.7717,14733,EU
708,Baracoa,Guantánamo,CU,-74.4956,20.3444,79797,EU
709,Baradero,Buenos Aires,AR,-59.5167,-33.8,28537,NA
710,Barahona,Enriquillo,DO,-71.0996,18.2079,83619,SA
711,Barakī Barak,Lōgar,AF,68.9667,33.9667,22305,NA
712,Baranavichy,Brestskaya Voblasts’,BY,25.9833,53.1167,174183,AS
713,Baranoa,Atlántico,CO,-74.9194,10.7956,50261,EU
714,Barbosa,Antioquia,CO,-75.3306,6.4375,53167,SA
715,Barbosa,Santander,CO,-73.6147,5.9331,29581,SA
716,Barcelona,Anzoátegui,VE,-64.6833,10.1333,448016,SA
717,Barcelona,Catalonia,ES,2.1769,41.3825,4735000,SA
718,Barcelos,Braga,PT,-8.6167,41.5333,120391,EU
719,Barclayville,Grand Kru,LR,-8.1667,4.8,2733,EU
720,Barcs,Somogy,HU,17.46,45.96,10501,AF
721,Bardaskan,Khorāsān-e Raẕavī,IR,57.9722,35.2631,28233,EU
722,Bardejov,Prešovský,SK,21.2758,49.295,32587,AS
723,Barendrecht,Zuid-Holland,NL,4.5333,51.85,48673,EU
724,Bari,Puglia,IT,16.8667,41.1253,323370,EU
725,Barinas,Barinas,VE,-70.2075,8.6226,284289,EU
726,Barishal,Barisāl,BD,90.3667,22.7,230000,SA
727,Barletta,Puglia,IT,16.2833,41.3167,94477,AS
728,Barnaul,Altayskiy Kray,RU,83.7872,53.3567,633301,EU
729,Barneveld,Gelderland,NL,5.5833,52.1333,57971,EU
730,Barobo,Surigao del Sur,PH,126.2,8.55,53146,EU
731,Barquisimeto,Lara,VE,-69.3467,10.0678,1059092,AS
732,Barrancabermeja,Santander,CO,-73.8472,7.0675,210729,SA
733,Barranquilla,Atlántico,CO,-74.7964,10.9639,1274250,SA
734,Barreiro,Setúbal,PT,-9.0733,38.6609,78764,SA
735,Bartica,Cuyuni-Mazaruni,GY,-58.6167,6.4,8532,EU
736,Bartolomé Masó,Granma,CU,-76.9428,20.1686,56460,SA
737,Bartoszyce,Warmińsko-Mazurskie,PL,20.8082,54.2535,22984,NA
738,Bartın,Bartın,TR,32.3375,41.6344,35992,EU
739,Baruta,Miranda,VE,-66.8754,10.4335,240755,AS
740,Baruun-Urt,Sühbaatar,MN,113.2786,46.6829,14297,SA
741,Basarabeasca,Basarabeasca,MD,28.9667,46.3333,8471,AS
742,Bascharage,Capellen,LU,5.9167,49.5667,5715,EU
743,Basco,Batanes,PH,121.9667,20.45,9517,EU
744,Basel,Basel-Stadt,CH,7.5906,47.5606,177827,AS
745,Baskil,Elazığ,TR,38.8236,38.5674,5002,EU
746,Basse Santa Su,Upper River,GM,-14.223,13.31,14380,AS
747,Basseterre,Saint George Basseterre,KN,-62.7342,17.2983,13220,AF
748,Bastak,Hormozgān,IR,54.3667,27.1992,9959,NA
749,Bastogne,Wallonia,BE,5.72,50.0042,15894,AS
750,Basuo,Hainan,CN,108.6391,19.102,167636,EU
751,Bata,Litoral,GQ,9.77,1.865,250770,AS
752,Batabanó,Mayabeque,CU,-82.2833,22.7167,25664,AF
753,Batalha,Leiria,PT,-8.8167,39.65,15805,NA
754,Batangas,Batangas,PH,121.05,13.75,351437,EU
755,Batken,Batken,KG,70.8194,40.0625,12134,AS
756,Batman,Batman,TR,41.1333,37.8833,26730,AS
757,Batna,Batna,DZ,6.1667,35.55,290645,AS
758,Baton Rouge,Louisiana,US,-91.131,30.4418,570308,AF
759,Battalgazi,Malatya,TR,38.3656,38.4228,14994,NA
760,Battambang,Battambang,KH,103.1983,13.1028,130000,AS
761,Batumi,Ajaria,GE,41.6417,41.6458,154600,AS
762,Bauchi,Bauchi,NG,9.8442,10.3158,693700,AS
763,Bauska,Bauskas Novads,LV,24.1875,56.4067,9840,
764,Bauta,Artemisa,CU,-82.5492,22.9919,23557,AF
765,Bautzen,Saxony,DE,14.4239,51.1814,37966,EU
766,Bayamo,Granma,CU,-76.6428,20.3817,235107,NA
767,Bayan Hot,Inner Mongolia,CN,105.7001,38.8556,94445,EU
768,Bayanhongor,Bayanhongor,MN,100.7181,46.1944,26252,NA
769,Bayburt,Bayburt,TR,40.226,40.2546,23690,AS
770,Bayeux,Normandie,FR,-0.7039,49.2786,13017,AS
771,Bayjī,Şalāḩ ad Dīn,IQ,43.4931,34.9292,60000,AS
772,Bayombong,Nueva Vizcaya,PH,121.15,16.4833,67714,EU
773,Bayonne,Nouvelle-Aquitaine,FR,-1.48,43.49,51411,AS
774,Bayreuth,Bavaria,DE,11.5783,49.9481,74657,AS
775,Bayt al Faqīh,Al Ḩudaydah,YE,43.3167,14.5167,41652,EU
776,Bayındır,İzmir,TR,27.6481,38.2192,11273,EU
777,Bazhou,Sichuan,CN,106.7559,31.8576,3283148,AS
778,Bač,Bač,RS,19.2353,45.3886,6087,AS
779,Bačka Palanka,Bačka Palanka,RS,19.3886,45.2506,29449,AS
780,Bačka Topola,Bačka Topola,RS,19.635,45.8089,16171,EU
781,Bački Petrovac,Bački Petrovac,RS,19.5883,45.3564,6155,EU
782,Başmakçı,Afyonkarahisar,TR,30.0101,37.8973,5034,EU
783,Ba‘qūbah,Diyālá,IQ,44.6436,33.7447,467900,EU
784,Beaune,Bourgogne-Franche-Comté,FR,4.8397,47.025,20711,AS
785,Beauvais,Hauts-de-France,FR,2.0952,49.4303,56605,AS
786,Bedekovčina,Krapinsko-Zagorska Županija,HR,16.0,46.0333,8079,EU
787,Bedum,Groningen,NL,6.6,53.3,10475,EU
788,Beek,Limburg,NL,5.7961,50.9394,15929,EU
789,Beek en Donk,Noord-Brabant,NL,5.6208,51.5161,22333,EU
790,Beersheba,Southern,IL,34.7978,31.2589,209000,EU
791,Beeskow,Brandenburg,DE,14.25,52.1667,8070,EU
792,Behbahān,Khūzestān,IR,50.2417,30.5958,122604,AS
793,Beichengqu,Inner Mongolia,CN,113.1565,40.4348,245608,EU
794,Beidao,Gansu,CN,105.918,34.602,1225000,AS
795,Beihai,Guangxi,CN,109.1,21.4667,1680000,AS
796,Beijing,Beijing,CN,116.4075,39.904,19437000,AS
797,Beilen,Drenthe,NL,6.5111,52.8567,14089,AS
798,Beira,Sofala,MZ,34.85,-19.8333,436240,AS
799,Beirut,Beyrouth,LB,35.5131,33.8869,361366,EU
800,Beja,Beja,PT,-7.8653,38.0156,35854,AF
801,Bejaïa,Bejaïa,DZ,5.0642,36.7511,176139,AS
802,Bela Crkva,Bela Crkva,RS,21.4172,44.8975,10675,EU
803,Belalcázar,Cauca,CO,-75.9717,2.6469,36628,AF
804,Belaya Kalitva,Rostovskaya Oblast’,RU,40.7833,48.1667,40275,EU
805,Beledweyne,Hiiraan,SO,45.204,4.736,62945,SA
806,Belen,Hatay,TR,36.1917,36.4917,15629,EU
807,Belene,Pleven,BG,25.1254,43.644,7227,AF
808,Belfort,Bourgogne-Franche-Comté,FR,6.85,47.64,46954,AS
809,Belgorod,Belgorodskaya Oblast’,RU,36.6,50.6,391135,EU
810,Belgrade,Beograd,RS,20.4667,44.8167,1378682,EU
811,Belize City,Belize,BZ,-88.1886,17.4986,57169,EU
812,Belišće,Osječko-Baranjska Županija,HR,18.4069,45.6825,6518,EU
813,Bell Ville,Córdoba,AR,-62.6833,-32.6333,33835,NA
814,Bella Vista,Chiapas,MX,-92.2167,15.5833,20142,EU
815,Belley,Auvergne-Rhône-Alpes,FR,5.6881,45.7592,9122,SA
816,Bello,Antioquia,CO,-75.5581,6.3319,371591,NA
817,Belluno,Veneto,IT,12.2156,46.1408,35710,EU
818,Belmonte,Castelo Branco,PT,-7.35,40.3667,6859,SA
819,Belmopan,Cayo,BZ,-88.7675,17.25,17222,EU
820,Belo Horizonte,Minas Gerais,BR,-43.9419,-19.9281,5159000,EU
821,Belorechensk,Krasnodarskiy Kray,RU,39.8667,44.7667,52082,NA
822,Beloslav,Varna,BG,27.7067,43.1937,7689,SA
823,Belovodskoe,Chüy,KG,74.1167,42.8333,21275,EU
824,Beltinci,Beltinci,SI,16.2328,46.606,2430,EU
825,Belém,Pará,BR,-48.5039,-1.4558,1499641,AS
826,Belén,Catamarca,AR,-67.0333,-27.6496,11359,EU
827,Belén de los Andaquíes,Caquetá,CO,-75.8727,1.4164,11081,SA
828,Belčišta,Debarca,MK,20.8303,41.3028,437,SA
829,Ben Arous,Ben Arous,TN,10.2189,36.7531,88322,SA
830,Benavente,Santarém,PT,-8.8167,38.9833,29019,EU
831,Bender,Bender,MD,29.4833,46.8333,91882,AF
832,Benemérito,Chiapas,MX,-90.6531,16.5172,20193,EU
833,Benevento,Campania,IT,14.7833,41.1333,59789,EU
834,Benghazi,Banghāzī,LY,20.0667,32.1167,631555,NA
835,Bengkulu,Bengkulu,ID,102.2592,-3.7956,360495,EU
836,Benguela,Benguela,AO,13.4167,-12.55,561775,AF
837,Beni Abbès,Béchar,DZ,-2.1,30.08,10885,AS
838,Benin City,Edo,NG,5.6145,6.3176,1147188,AF
839,Benito Juárez,Buenos Aires,AR,-59.8,-37.6833,10609,AF
840,Benito Juárez,Veracruz,MX,-98.2,20.8833,17618,AF
841,Bensonville,Montserrado,LR,-10.6097,6.4456,4089,SA
842,Bentiu,Unity,SS,29.8,9.25,7781,NA
843,Beočin,Beočin,RS,19.7203,45.1922,8058,AF
844,Berane,Berane,ME,19.8694,42.8473,11776,AF
845,Berat,Berat,AL,19.9497,40.7049,36496,EU
846,Berazategui,Buenos Aires,AR,-58.2133,-34.7679,180523,EU
847,Berbérati,Mambéré-Kadéï,CF,15.7833,4.2667,76918,EU
848,Berdiansk,Zaporiz’ka Oblast’,UA,36.7845,46.7598,114205,SA
849,Berdychiv,Zhytomyrs’ka Oblast’,UA,28.6,49.8919,76229,AF
850,Berehove,Zakarpats’ka Oblast’,UA,22.6375,48.2025,23732,EU
851,Berettyóújfalu,Hajdú-Bihar,HU,21.55,47.2167,14690,EU
852,Berezhany,Ternopil’s’ka Oblast’,UA,24.9436,49.4464,17316,EU
853,Berezivka,Odes’ka Oblast’,UA,30.9125,47.2039,9845,EU
854,Bereznehuvate,Mykolayivs’ka Oblast’,UA,32.8478,47.3114,7552,EU
855,Bergama,İzmir,TR,27.1783,39.1228,24121,EU
856,Bergambacht,Zuid-Holland,NL,4.756,51.9314,9801,EU
857,Bergamo,Lombardy,IT,9.67,45.695,120923,AS
858,Bergeijk,Noord-Brabant,NL,5.3592,51.3203,18491,EU
859,Bergen,Hordaland,NO,5.3233,60.3925,257087,EU
860,Bergen,Limburg,NL,6.0336,51.5992,13140,EU
861,Bergen op Zoom,Noord-Brabant,NL,4.3,51.5,66811,EU
862,Bergerac,Nouvelle-Aquitaine,FR,0.48,44.85,26823,EU
863,Bergheim,North Rhine-Westphalia,DE,6.65,50.9667,61612,EU
864,Bergisch Gladbach,North Rhine-Westphalia,DE,7.1367,50.9917,111966,EU
865,Berkovitsa,Montana,BG,23.1251,43.2371,12821,EU
866,Berlin,Berlin,DE,13.3833,52.5167,3664088,EU
867,Bern,Bern,CH,7.4474,46.948,133798,EU
868,Bernay,Normandie,FR,0.5983,49.0886,9951,EU
869,Bernburg,Saxony-Anhalt,DE,11.7333,51.8,32674,EU
870,Berovo,Berovo,MK,22.8564,41.7078,3619,EU
871,Berriozábal,Chiapas,MX,-93.2716,16.7985,51722,EU
872,Bershad,Vinnyts’ka Oblast’,UA,29.5325,48.3728,12795,EU
873,Bertoua,Est,CM,13.6833,4.5833,88462,NA
874,Beryslav,Khersons’ka Oblast’,UA,33.4167,46.8333,12123,EU
875,Besançon,Bourgogne-Franche-Comté,FR,6.02,47.24,117912,AF
876,Best,Noord-Brabant,NL,5.3922,51.5108,29821,EU
877,Betong,Yala,TH,101.0725,5.7731,26640,EU
878,Betulia,Antioquia,CO,-75.9839,6.1122,17317,EU
879,Betulia,Santander,CO,-73.2836,6.9,5110,AS
880,Beuningen,Gelderland,NL,5.7667,51.8667,25882,SA
881,Beverwijk,Noord-Holland,NL,4.6572,52.4864,41176,SA
882,Beydağ,Kayseri,TR,28.2089,38.0869,5521,EU
883,Beykoz,İstanbul,TR,29.1056,41.125,51689,EU
884,Beyla,N’Zérékoré,GN,-8.657,8.687,13204,AS
885,Beyləqan,Beyləqan,AZ,47.6156,39.7692,12263,AS
886,Beypazarı,Ankara,TR,31.9211,40.1703,9860,AF
887,Beyşehir,Konya,TR,31.7306,37.6867,7456,AS
888,Bełchatów,Łódzkie,PL,19.3667,51.3667,59025,AS
889,Beşikdüzü,Trabzon,TR,39.2329,41.052,11641,AS
890,Beşiri,Batman,TR,41.29,37.92,5219,EU
891,Bhakkar,Punjab,PK,71.0667,31.6333,88472,AS
892,Bhisho,Eastern Cape,ZA,27.4381,-32.8494,160997,AS
893,Bhopāl,Madhya Pradesh,IN,77.4167,23.25,1798218,AS
894,Bhubaneshwar,Odisha,IN,85.8281,20.2644,837737,AF
895,Biak,Papua,ID,136.08,-1.18,103610,AS
896,Biała Podlaska,Lubelskie,PL,23.1167,52.0333,57498,AS
897,Białogard,Zachodniopomorskie,PL,15.9875,54.007,24146,AS
898,Białystok,Podlaskie,PL,23.1667,53.1167,297554,EU
899,Biberach,Baden-Württemberg,DE,9.7886,48.0981,33510,EU
900,Bicske,Fejér,HU,18.6363,47.4907,11969,EU
901,Bida,Niger,NG,6.01,9.0804,173849,EU
902,Bielefeld,North Rhine-Westphalia,DE,8.5333,52.0167,333509,EU
903,Biella,Piedmont,IT,8.0533,45.5664,44324,AF
904,Bielsk Podlaski,Podlaskie,PL,23.1902,52.7641,30322,EU
905,Bielsko-Biała,Śląskie,PL,19.0444,49.8225,172781,EU
906,Biga,Çanakkale,TR,27.2422,40.2281,12063,EU
907,Bihać,"Bosnia and Herzegovina, Federation of",BA,15.8667,44.8167,43007,EU
908,Bijeljina,"Srpska, Republika",BA,19.2167,44.75,114663,AS
909,Bijelo Polje,Bijelo Polje,ME,19.7456,43.0292,15883,EU
910,Bila Tserkva,Kyyivs’ka Oblast’,UA,30.1167,49.7956,208944,EU
911,Bilbao,Basque Country,ES,-2.9236,43.2569,346405,EU
912,Bilecik,Bilecik,TR,29.9792,40.1431,9722,EU
913,Bilhorod-Dnistrovskyi,Odes’ka Oblast’,UA,30.3333,46.1833,57210,EU
914,Bilmak,Zaporiz’ka Oblast’,UA,36.65,47.3589,6802,AS
915,Bilohirsk,"Krym, Avtonomna Respublika",UA,34.6022,45.0544,16428,EU
916,Bilovodsk,Luhans’ka Oblast’,UA,39.5756,49.1992,12000,EU
917,Bilozerka,Khersons’ka Oblast’,UA,32.4333,46.6333,9565,EU
918,Biltine,Wadi Fira,TD,20.9267,14.5275,11000,EU
919,Bilwi,Caribe Norte,NI,-83.3833,14.05,33600,EU
920,Biləsuvar,Biləsuvar,AZ,48.5428,39.4481,22800,AF
921,Bimbo,Ombella-Mpoko,CF,18.5163,4.3313,124176,NA
922,Bindura,Mashonaland Central,ZW,31.3333,-17.3,46275,AS
923,Bingöl,Bingöl,TR,40.5017,38.8861,11727,AF
924,Binnish,Idlib,SY,36.7,35.95,21848,AF
925,Birao,Vakaga,CF,22.7833,10.2837,10178,AS
926,Birecik,Şanlıurfa,TR,37.9769,37.025,15317,AS
927,Birendranagar,Bherī,NP,81.6333,28.6,47914,AF
928,Birkenfeld,Rhineland-Palatinate,DE,7.1833,49.65,6984,AS
929,Birkirkara,Birkirkara,MT,14.4667,35.9,24356,AS
930,Birnin Kebbi,Kebbi,NG,4.1999,12.4504,108164,EU
931,Birnin Konni,Tahoua,NE,5.2599,13.7904,65252,EU
932,Birobidzhan,Yevreyskaya Avtonomnaya Oblast’,RU,132.9333,48.7833,73623,AF
933,Birāṭnagar,Kosī,NP,87.2833,26.4833,242548,AF
934,Birštonas,Birštono,LT,24.0292,54.6056,2331,EU
935,Birżebbuġa,Birżebbuġa,MT,14.5278,35.8267,9736,AS
936,Biržai,Biržai,LT,24.75,56.2,10146,EU
937,Bishkek,Bishkek,KG,74.5667,42.8667,1053900,EU
938,Biskra,Biskra,DZ,5.7333,34.85,204661,EU
939,Bismarck,North Dakota,US,-100.7694,46.8144,98345,AS
940,Bissau,Bissau,GW,-15.5956,11.8592,395954,AF
941,Bistrica ob Sotli,Bistrica ob Sotli,SI,15.6625,46.0569,235,NA
942,Bistriţa,Bistriţa-Năsăud,RO,24.4833,47.1333,75076,AF
943,Bitburg,Rhineland-Palatinate,DE,6.5256,49.9747,14904,EU
944,Bitlis,Bitlis,TR,42.1167,38.4,18684,EU
945,Bitola,Bitola,MK,21.3347,41.0319,74550,EU
946,Biu,Borno,NG,12.19,10.6204,95005,AS
947,Bizerte,Bizerte,TN,9.8739,37.2744,142966,EU
948,Biên Hòa,Đồng Nai,VN,106.8221,10.9508,1104000,AF
949,Biłgoraj,Lubelskie,PL,22.7333,50.55,27290,AF
950,Bjelovar,Bjelovarsko-Bilogorska Županija,HR,16.8422,45.8989,40276,AS
951,Black River,Saint Elizabeth,JM,-77.8508,18.0256,4261,EU
952,Bladel,Noord-Brabant,NL,5.2167,51.3667,20175,EU
953,Blagoevgrad,Blagoevgrad,BG,23.0897,42.0119,73463,NA
954,Blagoveshchensk,Amurskaya Oblast’,RU,127.5364,50.2578,224419,EU
955,Blantyre,Blantyre,MW,35.0058,-15.7861,1895973,EU
956,Blaricum,Noord-Holland,NL,5.2422,52.2728,11202,EU
957,Bled,Bled,SI,14.1167,46.3667,4929,AF
958,Blenheim,Marlborough,NZ,173.95,-41.5167,26400,EU
959,Blida,Blida,DZ,2.8333,36.4722,331779,EU
960,Bloemfontein,Free State,ZA,26.2167,-29.1,256185,OC
961,Blois,Centre-Val de Loire,FR,1.3281,47.5939,45871,AF
962,Bludenz,Vorarlberg,AT,9.8219,47.1533,14539,AF
963,Bluefields,Caribe Sur,NI,-83.7645,12.014,45547,EU
964,Bo,Southern,SL,-11.74,7.9564,233684,EU
965,Bo Phloi,Kanchanaburi,TH,99.5154,14.3284,7095,NA
966,Boa Vista,Roraima,BR,-60.6719,2.82,326419,AF
967,Boac,Marinduque,PH,121.8333,13.45,57283,AS
968,Boaco,Boaco,NI,-85.6667,12.4667,317000,SA
969,Boavita,Boyacá,CO,-72.5842,6.3308,7079,AS
970,Bobigny,Île-de-France,FR,2.4397,48.9106,54272,NA
971,Bobo-Dioulasso,Hauts-Bassins,BF,-4.2833,11.1833,903887,SA
972,Bobov Dol,Kyustendil,BG,22.9979,42.3638,5176,EU
973,Bobrynets,Kirovohrads’ka Oblast’,UA,32.1581,48.0578,10898,AF
974,Bocas de Satinga,Nariño,CO,-78.3256,2.3469,32759,EU
975,Bocas del Toro,Bocas del Toro,PA,-82.242,9.3403,12996,EU
976,Bochil,Chiapas,MX,-92.8903,16.9953,34997,SA
977,Bochnia,Małopolskie,PL,20.4333,49.9833,30075,NA
978,Bochum,North Rhine-Westphalia,DE,7.2167,51.4833,364454,NA
979,Bodegraven,Zuid-Holland,NL,4.7486,52.0808,17954,EU
980,Bodrum,Muğla,TR,27.4292,37.0383,5136,EU
981,Bodø,Nordland,NO,14.3833,67.2833,52560,EU
982,Boekel,Noord-Brabant,NL,5.6742,51.6011,10588,AS
983,Boende,Tshuapa,CD,20.8806,-0.2817,32091,EU
984,Boffa,Boké,GN,-14.043,10.185,2332,EU
985,Bogandé,Est,BF,-0.1436,12.9714,9854,AF
986,Bogatić,Bogatić,RS,19.4833,44.8333,6488,AF
987,Bogdanci,Bogdanci,MK,22.5728,41.2031,2951,AF
988,Bogotá,Bogotá,CO,-74.0705,4.6126,7743955,EU
989,Bogovinje,Bogovinje,MK,20.9133,41.9233,25,EU
990,Bohodukhiv,Kharkivs’ka Oblast’,UA,35.5164,50.1608,15576,SA
991,Bohorodchany,Ivano-Frankivs’ka Oblast’,UA,24.5333,48.8,8222,EU
992,Boise,Idaho,US,-116.2312,43.6007,389280,EU
993,Bojacá,Cundinamarca,CO,-74.3422,4.7336,8788,EU
994,Bojnūrd,Khorāsān-e Shomālī,IR,57.3333,37.4667,199791,NA
995,Bokhtar,Khatlon,TJ,68.7803,37.8364,75450,SA
996,Boké,Boké,GN,-14.3,10.94,116270,AS
997,Bol,Lac,TD,14.7147,13.4586,11700,AS
998,Bolama,Bolama/Bijagós,GW,-15.4742,11.5776,4819,AF
999,Bolesławiec,Dolnośląskie,PL,15.5667,51.2667,39412,AF
1000,Bolgatanga,Upper East,GH,-0.8514,10.7856,66685,AF
1001,Bolhrad,Odes’ka Oblast’,UA,28.6134,45.6855,17400,EU
1002,Boli,Heilongjiang,CN,130.5759,45.7564,95260,AF
1003,Bollnäs,Gävleborg,SE,16.3883,61.3484,13398,EU
1004,Bolnisi,Kvemo Kartli,GE,44.5333,41.45,8967,AS
1005,Bologna,Emilia-Romagna,IT,11.3428,44.4939,389261,EU
1006,Bologoye,Tverskaya Oblast’,RU,34.0789,57.8787,21158,AS
1007,Bolu,Bolu,TR,31.6,40.7333,21700,EU
1008,Bolvadin,Afyonkarahisar,TR,31.05,38.7167,20139,EU
1009,Bolzano,Trentino-Alto Adige,IT,11.35,46.5,107317,AS
1010,Bombarral,Leiria,PT,-9.15,39.2667,13193,AS
1011,Bonanza,Caribe Norte,NI,-84.5833,14.0167,15000,EU
1012,Bonao,Cibao Sur,DO,-70.4,18.9333,125338,EU
1013,Bondoukou,Zanzan,CI,-2.8,8.0304,58297,NA
1014,Bongao,Tawi-Tawi,PH,119.7731,5.0292,116118,NA
1015,Bongor,Mayo-Kébbi Est,TD,15.3722,10.2806,27770,AF
1016,Bonn,North Rhine-Westphalia,DE,7.0997,50.7339,330579,AS
1017,Bonneville,Auvergne-Rhône-Alpes,FR,6.4008,46.0789,12557,AF
1018,Bontoc,Mountain,PH,120.9756,17.0872,24104,EU
1019,Bonyhád,Tolna,HU,18.53,46.3,12982,EU
1020,Bonāb,Āz̄arbāyjān-e Sharqī,IR,46.0561,37.3403,75332,AS
1021,Boosaaso,Bari,SO,49.18,11.28,46969,EU
1022,Bor,Bor,RS,22.1036,44.1303,34159,AS
1023,Bor,Jonglei,SS,31.55,6.2167,315351,AF
1024,Bor,Niğde,TR,34.5627,37.8963,14309,EU
1025,Borabue,Maha Sarakham,TH,103.1231,16.037,5771,AF
1026,Borba,Évora,PT,-7.45,38.8,7333,AS
1027,Bordeaux,Nouvelle-Aquitaine,FR,-0.58,44.84,257068,AS
1028,Bordj Bou Arreridj,Bordj Bou Arréridj,DZ,4.7667,36.0667,168346,EU
1029,Bordj Mokhtar,Adrar,DZ,0.9542,21.3289,16437,EU
1030,Borken,North Rhine-Westphalia,DE,6.8583,51.8439,42530,AF
1031,Borlänge,Dalarna,SE,15.4167,60.4833,39422,AF
1032,Borne,Overijssel,NL,6.75,52.3,23210,EU
1033,Borongan,Eastern Samar,PH,125.4333,11.6,71961,EU
1034,Borovnica,Borovnica,SI,14.3642,45.918,2674,EU
1035,Boryeong,Chungnam,KR,126.6167,36.3333,101852,AS
1036,Boryspil,Kyyivs’ka Oblast’,UA,30.95,50.35,62281,EU
1037,Borås,Västra Götaland,SE,12.92,57.7304,65008,AS
1038,Borāzjān,Būshehr,IR,51.2158,29.2667,110567,EU
1039,Borūjerd,Lorestān,IR,48.7514,33.8972,234997,EU
1040,Bosanska Krupa,"Bosnia and Herzegovina, Federation of",BA,16.15,44.8833,29659,AS
1041,Bosanski Petrovac,"Bosnia and Herzegovina, Federation of",BA,16.3667,44.55,7946,AS
1042,Bosconia,Cesar,CO,-73.8903,9.9761,39716,EU
1043,Bosilovo,Bosilovo,MK,22.7278,41.4406,1069,EU
1044,Boskoop,Zuid-Holland,NL,4.6333,52.0667,15045,SA
1045,Bossangoa,Ouham,CF,17.45,6.4833,36478,EU
1046,Boston,Massachusetts,US,-71.0846,42.3188,4688346,EU
1047,Botoşani,Botoşani,RO,26.6694,47.7486,106847,AF
1048,Bottrop,North Rhine-Westphalia,DE,6.9253,51.5232,117383,NA
1049,Bouaflé,Sassandra-Marahoué,CI,-5.7442,6.9903,71792,EU
1050,Bouaké,Vallée du Bandama,CI,-5.0331,7.6833,659233,EU
1051,Bouar,Nana-Mambéré,CF,15.6,5.95,40353,AF
1052,Bougouni,Sikasso,ML,-7.4832,11.4177,35450,AF
1053,Bouira,Bouira,DZ,3.8925,36.3783,68545,AF
1054,Boulogne-Billancourt,Île-de-France,FR,2.2409,48.8352,121334,AF
1055,Boulogne-sur-Mer,Hauts-de-France,FR,1.6147,50.7264,40664,AF
1056,Boulsa,Centre-Nord,BF,-0.5833,12.6667,17489,EU
1057,Boumerdes,Boumerdes,DZ,3.4728,36.7594,41685,EU
1058,Bourg-en-Bresse,Auvergne-Rhône-Alpes,FR,5.2289,46.2056,41248,AF
1059,Bourges,Centre-Val de Loire,FR,2.3964,47.0844,64668,AF
1060,Bovec,Bovec,SI,13.5522,46.3378,1586,EU
1061,Boxmeer,Noord-Brabant,NL,5.9444,51.6483,29065,EU
1062,Boxtel,Noord-Brabant,NL,5.3275,51.5911,30747,EU
1063,Boyabat,Sinop,TR,34.7667,41.4689,9418,EU
1064,Bozdoğan,Aydın,TR,28.3103,37.6728,6739,EU
1065,Bozoum,Ouham-Pendé,CF,16.3783,6.3172,20665,AS
1066,Bozyazı,Mersin,TR,32.975,36.1,15615,AS
1067,Bozüyük,Bilecik,TR,30.0367,39.9078,13307,AF
1068,Boğazlıyan,Yozgat,TR,35.2462,39.1929,7925,AS
1069,Brades,Saint Peter,MS,-62.2106,16.7928,391,AS
1070,Braga,Braga,PT,-8.42,41.5503,181494,AS
1071,Bragado,Buenos Aires,AR,-60.5,-35.1167,33222,NA
1072,Bragança,Bragança,PT,-6.75,41.8,35341,EU
1073,Brake,Lower Saxony,DE,8.4833,53.3333,14965,SA
1074,Brandenburg,Brandenburg,DE,12.5561,52.4117,72040,EU
1075,Brandsen,Buenos Aires,AR,-58.2167,-35.1667,19877,EU
1076,Braniewo,Warmińsko-Mazurskie,PL,19.8333,54.3833,16992,EU
1077,Braslaw,Vitsyebskaya Voblasts’,BY,27.0397,55.6397,9390,SA
1078,Brasília,Distrito Federal,BR,-47.8828,-15.7939,3015268,EU
1079,Bratislava,Bratislavský,SK,17.1128,48.1447,475503,EU
1080,Bratske,Mykolayivs’ka Oblast’,UA,31.5781,47.8636,5313,SA
1081,Braunau am Inn,Oberösterreich,AT,13.0333,48.2583,17095,EU
1082,Braunschweig,Lower Saxony,DE,10.5211,52.2692,248561,EU
1083,Brazzaville,Brazzaville,CG,15.2833,-4.2667,1827000,EU
1084,Braşov,Braşov,RO,25.6,45.65,290743,EU
1085,Breda,Noord-Brabant,NL,4.775,51.5875,183873,AF
1086,Bregenz,Vorarlberg,AT,9.7492,47.505,29806,EU
1087,Bremen,Bremen,DE,8.8089,53.0769,566573,EU
1088,Bremgarten,Aargau,CH,8.34,47.3528,7765,EU
1089,Brescia,Lombardy,IT,10.2203,45.5389,196745,EU
1090,Bressuire,Nouvelle-Aquitaine,FR,-0.4886,46.84,19733,EU
1091,Brest,Brestskaya Voblasts’,BY,23.6569,52.0847,340318,EU
1092,Brest,Bretagne,FR,-4.49,48.39,139602,EU
1093,Breza,"Bosnia and Herzegovina, Federation of",BA,18.261,44.021,14564,EU
1094,Brezno,Banskobystrický,SK,19.6381,48.8036,21082,EU
1095,Brežice,Brežice,SI,15.5925,45.9044,6843,EU
1096,Bria,Haute-Kotto,CF,21.9919,6.5369,35204,EU
1097,Briançon,Provence-Alpes-Côte d’Azur,FR,6.635,44.8958,11084,EU
1098,Briceni,Briceni,MD,27.085,48.3628,7314,AF
1099,Bridgetown,Saint Michael,BB,-59.6167,13.0975,110000,EU
1100,Brielle,Zuid-Holland,NL,4.1639,51.9042,17182,EU
1101,Briey,Grand Est,FR,5.9394,49.2486,5674,NA
1102,Brig-Glis,Valais,CH,7.9876,46.3159,13109,EU
1103,Brignoles,Provence-Alpes-Côte d’Azur,FR,6.0617,43.4058,17364,EU
1104,Brikama,Western,GM,-16.6599,13.2804,195136,EU
1105,Brindisi,Puglia,IT,17.9458,40.6383,87141,EU
1106,Brioude,Auvergne-Rhône-Alpes,FR,3.3842,45.2942,6681,AF
1107,Brisbane,Queensland,AU,153.0281,-27.4678,2360241,EU
1108,Brive-la-Gaillarde,Nouvelle-Aquitaine,FR,1.5321,45.1583,46630,EU
1109,Brno,Jihomoravský Kraj,CZ,16.6083,49.1953,382405,OC
1110,Brodnica,Kujawsko-Pomorskie,PL,19.4,53.25,28880,EU
1111,Brokopondo,Brokopondo,SR,-55.02,5.0404,8340,EU
1112,Brovary,Kyyivs’ka Oblast’,UA,30.7903,50.5114,102856,EU
1113,Bruck an der Leitha,Niederösterreich,AT,16.779,48.0255,7887,SA
1114,Bruck an der Mur,Steiermark,AT,15.2686,47.4106,15837,EU
1115,Bruges,Flanders,BE,3.2242,51.2089,118284,EU
1116,Brummen,Gelderland,NL,6.1667,52.1,20698,EU
1117,Brunssum,Limburg,NL,5.9667,50.95,28103,EU
1118,Brussels,Brussels-Capital Region,BE,4.3314,50.8353,1743000,EU
1119,Bruzual,Apure,VE,-69.3316,8.0494,7370,EU
1120,Brvenica,Brvenica,MK,20.9808,41.9672,449,EU
1121,Bryansk,Bryanskaya Oblast’,RU,34.3667,53.25,406553,SA
1122,Brzeg,Opolskie,PL,17.4833,50.8667,35890,EU
1123,Brzesko,Małopolskie,PL,20.6167,49.9667,16819,EU
1124,Brzeziny,Łódzkie,PL,19.75,51.8,12501,EU
1125,Brzozów,Podkarpackie,PL,22.0194,49.6953,26615,EU
1126,Brăila,Brăila,RO,27.9575,45.2692,180302,EU
1127,Brčko,Brcko District,BA,18.8092,44.8783,39893,EU
1128,Bua Chet,Surin,TH,103.9301,14.5326,6418,EU
1129,Bua Yai,Nakhon Ratchasima,TH,102.4337,15.5858,14168,EU
1130,Bubanza,Bubanza,BI,29.4,-3.0833,20031,AS
1131,Bucak,Burdur,TR,30.595,37.4592,10094,AS
1132,Bucaramanga,Santander,CO,-73.1161,7.1186,581130,AF
1133,Bucha,Kyyivs’ka Oblast’,UA,30.235,50.5464,35162,AS
1134,Bucharest,Bucureşti,RO,26.0833,44.4,1883425,SA
1135,Bucheon,Gyeonggi,KR,126.7831,37.4989,867678,EU
1136,Buda-Kashalyova,Homyel’skaya Voblasts’,BY,30.5667,52.7167,8850,EU
1137,Budakeszi,Pest,HU,18.93,47.5111,15088,AS
1138,Budapest,Budapest,HU,19.0408,47.4983,1723836,EU
1139,Budva,Budva,ME,18.8453,42.2847,19218,EU
1140,Buea,South-West,CM,9.2333,4.1667,131325,EU
1141,Buenaventura,Valle del Cauca,CO,-77.0267,3.8772,423927,EU
1142,Buenavista,Córdoba,CO,-75.4817,8.2233,22711,AF
1143,Bueng Kan,Bueng Kan,TH,103.6552,18.3669,4494,SA
1144,Bueng Khong Long,Bueng Kan,TH,104.0484,17.9684,9777,SA
1145,Buenos Aires,"Buenos Aires, Ciudad Autónoma de",AR,-58.3819,-34.5997,16216000,AS
1146,Buenos Aires,Cauca,CO,-76.6411,3.0164,34631,AS
1147,Buesaco,Nariño,CO,-77.1564,1.3847,26229,SA
1148,Bugalagrande,Valle del Cauca,CO,-76.1575,4.2075,20970,SA
1149,Bugojno,"Bosnia and Herzegovina, Federation of",BA,17.4508,44.0572,34559,SA
1150,Buguey,Cagayan,PH,121.8331,18.2882,32148,SA
1151,Buharkent,Aydın,TR,28.7425,37.9646,5795,EU
1152,Buje,Istarska Županija,HR,13.65,45.4,5182,AS
1153,Bujumbura,Bujumbura Mairie,BI,29.3611,-3.3825,658859,AS
1154,Bukavu,Sud-Kivu,CD,28.8428,-2.4908,436779,EU
1155,Bukhara,Buxoro,UZ,64.4286,39.7747,280187,AF
1156,Bukoba,Kagera,TZ,31.8167,-1.3333,100504,AF
1157,Bulancak,Giresun,TR,38.2314,40.9381,9343,AS
1158,Bulanık,Muş,TR,42.2667,39.095,6186,AF
1159,Bulawayo,Bulawayo,ZW,28.5667,-20.1667,653337,AS
1160,Buldan,Denizli,TR,28.8306,38.045,11681,AS
1161,Bulgan,Bulgan,MN,103.5347,48.8125,12323,AF
1162,Bungoma,Bungoma,KE,34.5666,0.5666,55857,AS
1163,Bunia,Ituri,CD,30.24,1.5604,96764,AS
1164,Buraydah,Al Qaşīm,SA,43.9667,26.3333,467410,AF
1165,Burdur,Burdur,TR,30.2833,37.7167,22489,AF
1166,Burg,Saxony-Anhalt,DE,11.855,52.2725,22478,AS
1167,Burgas,Burgas,BG,27.4702,42.503,210720,AS
1168,Burgos,Castille-Leon,ES,-3.6997,42.3408,174051,EU
1169,Burhaniye,Balıkesir,TR,26.9786,39.5108,11908,EU
1170,Buri Ram,Buriram,TH,103.1022,14.9942,28613,EU
1171,Bursa,Bursa,TR,29.0667,40.1833,211644,AS
1172,Bururi,Bururi,BI,29.6167,-3.9333,4478,AS
1173,Burutu,Delta,NG,5.5167,5.35,209666,AS
1174,Busan,Busan,KR,129.0403,35.1,3453198,AF
1175,Busia,Busia,KE,34.1108,0.4608,30777,AF
1176,Busia,Busia,UG,34.09,0.4669,47100,AS
1177,Bussum,Noord-Holland,NL,5.1611,52.2733,32410,AF
1178,Buta,Bas-Uélé,CD,24.74,2.82,45677,AF
1179,Butha-Buthe,Butha-Buthe,LS,28.2333,-28.7833,10000,EU
1180,Butuan,Butuan,PH,125.5288,8.9534,372910,AF
1181,Butwāl,Lumbinī,NP,83.45,27.7,118462,AF
1182,Buurhakaba,Bay,SO,44.0833,2.7837,31267,AS
1183,Buynaksk,Dagestan,RU,47.1167,42.8167,65080,AS
1184,Buzău,Buzău,RO,26.8167,45.1517,115494,AF
1185,Buôn Ma Thuột,Đắk Lắk,VN,108.05,12.6667,340000,EU
1186,Buşrá ash Shām,Dar‘ā,SY,36.4833,32.5167,19683,EU
1187,Bu’aale,Jubbada Dhexe,SO,42.5833,1.0833,1490,AS
1188,Byalynichy,Mahilyowskaya Voblasts’,BY,29.7096,53.9956,9913,AS
1189,Byaroza,Brestskaya Voblasts’,BY,24.9825,52.5333,28619,AF
1190,Bydgoszcz,Kujawsko-Pomorskie,PL,18.0,53.1167,346739,EU
1191,Bytom,Śląskie,PL,18.923,50.347,171515,EU
1192,Bytów,Pomorskie,PL,17.5,54.1667,16888,EU
1193,Bytča,Žilinský,SK,18.5581,49.2228,11362,EU
1194,Byumba,Northern Province,RW,30.0694,-1.5794,34544,EU
1195,Bácsalmás,Bács-Kiskun,HU,19.3261,46.1239,6453,EU
1196,Bánovce nad Bebravou,Nitriansky,SK,18.2581,48.7186,18350,AF
1197,Bátonyterenye,Nógrád,HU,19.8286,47.9892,11345,EU
1198,Béchar,Béchar,DZ,-2.2,31.6333,165627,EU
1199,Béja,Béja,TN,9.1817,36.7256,109299,EU
1200,Békés,Békés,HU,21.125,46.7769,18322,AF
1201,Békéscsaba,Békés,HU,21.0833,46.6833,58002,AF
1202,Béni Mellal,Béni Mellal-Khénifra,MA,-6.3608,32.3394,192676,EU
1203,Béthune,Hauts-de-France,FR,2.6408,50.5303,25193,EU
1204,Béziers,Occitanie,FR,3.219,43.3476,77599,AF
1205,Böblingen,Baden-Württemberg,DE,9.0,48.6833,50121,EU
1206,Bø,Telemark,NO,9.0314,59.4572,6101,EU
1207,Bünyan,Kayseri,TR,35.8592,38.8486,8467,EU
1208,Büyükçekmece,İstanbul,TR,28.5775,41.02,22394,EU
1209,Bābol,Māzandarān,IR,52.6833,36.55,250217,AS
1210,Bāfq,Yazd,IR,55.4028,31.6053,45453,AS
1211,Bāft,Kermān,IR,56.6022,29.2331,34517,AS
1212,Bājil,Al Ḩudaydah,YE,43.285,15.0583,46005,AS
1213,Bāmyān,Bāmyān,AF,67.8167,34.8167,61863,AS
1214,Bāneh,Kordestān,IR,45.8853,35.9975,110218,AS
1215,Bāniyās,Ţarţūs,SY,35.9403,35.1822,43151,AS
1216,Bălţi,Bălţi,MD,27.9289,47.7617,102457,AS
1217,Będzin,Śląskie,PL,19.1333,50.325,56354,AS
1218,Bījār,Kordestān,IR,47.5937,35.8741,53871,EU
1219,Bīrjand,Khorāsān-e Jonūbī,IR,59.2211,32.8664,178020,EU
1220,Būkān,Āz̄arbāyjān-e Gharbī,IR,46.2089,36.5211,193501,AS
1221,Bərdə,Bərdə,AZ,47.1186,40.3831,38500,AS
1222,Bạc Liêu,Bạc Liêu,VN,105.7167,9.2833,225000,AS
1223,Bắc Giang,Bắc Giang,VN,106.1947,21.2731,53728,AS
1224,Bắc Kạn,Bắc Kạn,VN,105.8377,22.1514,29227,AS
1225,Bắc Ninh,Bắc Ninh,VN,106.0763,21.1861,520000,AS
1226,Bến Tre,Bến Tre,VN,106.3833,10.2333,59442,AS
1227,Caacupé,Cordillera,PY,-57.14,-25.387,21696,AS
1228,Caazapá,Caazapá,PY,-56.38,-26.2,5504,AS
1229,Cabadbaran,Agusan del Norte,PH,125.5346,9.1228,80354,SA
1230,Cabaiguán,Sancti Spíritus,CU,-79.4953,22.0839,32000,SA
1231,Cabarroguis,Quirino,PH,121.5,16.5833,33533,AS
1232,Cabañas,Zacapa,GT,-89.8,14.9333,14817,NA
1233,Cabeceiras de Basto,Braga,PT,-8.0,41.5167,16710,AS
1234,Cabimas,Zulia,VE,-71.4333,10.4,351735,NA
1235,Cabinda,Cabinda,AO,12.2,-5.5667,550000,EU
1236,Cabricán,Quetzaltenango,GT,-91.65,15.0768,24474,SA
1237,Cabudare,Lara,VE,-69.2633,10.0331,70578,AF
1238,Cacheu,Cacheu,GW,-16.165,12.278,5674,NA
1239,Cadaval,Lisboa,PT,-9.1,39.25,14525,SA
1240,Cadereyta,Querétaro,MX,-99.8167,20.7,13347,AF
1241,Caen,Normandie,FR,-0.37,49.18,105512,EU
1242,Cafayate,Salta,AR,-65.98,-26.07,11785,NA
1243,Cagayan de Oro,Cagayan de Oro,PH,124.65,8.4833,728402,EU
1244,Cagliari,Sardegna,IT,9.1167,39.2167,154106,SA
1245,Cagua,Aragua,VE,-67.4611,10.1875,122571,AS
1246,Cahors,Occitanie,FR,1.4406,44.4475,19907,EU
1247,Cahul,Cahul,MD,28.1944,45.9075,30018,SA
1248,Caibarién,Villa Clara,CU,-79.4722,22.5158,38479,EU
1249,Caicedonia,Valle del Cauca,CO,-75.8281,4.3347,28825,EU
1250,Caimito,Artemisa,CU,-82.5964,22.9575,36813,NA
1251,Caimito,Sucre,CO,-75.1161,8.7894,12077,SA
1252,Cairo,Al Qāhirah,EG,31.2358,30.0444,19787000,NA
1253,Cajamarca,Cajamarca,PE,-78.5106,-7.1644,201329,SA
1254,Cajibío,Cauca,CO,-76.5731,2.6233,38703,AF
1255,Cajicá,Cundinamarca,CO,-74.025,4.9167,44721,SA
1256,Cajolá,Quetzaltenango,GT,-91.616,14.9252,16751,SA
1257,Calabar,Cross River,NG,8.325,4.95,461796,SA
1258,Calabozo,Guárico,VE,-67.4283,8.9219,131989,NA
1259,Calais,Hauts-de-France,FR,1.8564,50.9481,72929,AF
1260,Calama,Antofagasta,CL,-68.9272,-22.4624,157575,SA
1261,Calamar,Bolívar,CO,-74.9158,10.25,24573,EU
1262,Calapan,Oriental Mindoro,PH,121.2,13.3667,145786,SA
1263,Caldas,Antioquia,CO,-75.6361,6.0886,81381,SA
1264,Caldas da Rainha,Leiria,PT,-9.1363,39.4069,51729,AS
1265,Caldono,Cauca,CO,-76.4828,2.7969,34132,SA
1266,Calheta de São Miguel,São Miguel,CV,-23.5917,15.1875,4123,EU
1267,Cali,Valle del Cauca,CO,-76.5197,3.44,2471474,SA
1268,Calicut,Kerala,IN,75.7667,11.25,431560,AF
1269,Calkiní,Campeche,MX,-90.05,20.3667,14934,SA
1270,Callao,Callao,PE,-77.1333,-12.0611,1129854,AS
1271,Caloocan City,Caloocan,PH,120.9667,14.65,1661584,NA
1272,Calpulalpan,Hidalgo,MX,-98.5683,19.5869,33263,SA
1273,Caltanissetta,Sicilia,IT,14.0624,37.4915,62317,AS
1274,Calw,Baden-Württemberg,DE,8.7375,48.7144,23590,NA
1275,Cam Ranh,Khánh Hòa,VN,109.1369,11.9136,125311,EU
1276,Camagüey,Camagüey,CU,-77.9186,21.3786,321992,EU
1277,Camargo,Chihuahua,MX,-105.167,27.667,40221,AS
1278,Cambrai,Hauts-de-France,FR,3.2356,50.1767,32501,NA
1279,Campana,Buenos Aires,AR,-58.9167,-34.1667,86860,NA
1280,Campeche,Campeche,MX,-90.5306,19.85,220389,EU
1281,Campo Grande,Mato Grosso do Sul,BR,-54.6222,-20.4686,906092,SA
1282,Campo Maior,Portalegre,PT,-7.0667,39.0167,8456,NA
1283,Campo de la Cruz,Atlántico,CO,-74.8814,10.3778,18354,SA
1284,Campoalegre,Huila,CO,-75.3256,2.6867,34923,EU
1285,Campobasso,Molise,IT,14.6684,41.561,49262,SA
1286,Canalete,Córdoba,CO,-76.2411,8.79,23520,SA
1287,Cananea,Sonora,MX,-110.3006,30.9819,38113,EU
1288,Canatlán,Durango,MX,-104.78,24.52,10342,SA
1289,Canberra,Australian Capital Territory,AU,149.1269,-35.2931,381488,NA
1290,Cancún,Quintana Roo,MX,-86.8475,21.1606,888797,NA
1291,Candelaria,Artemisa,CU,-82.9581,22.7439,19523,OC
1292,Candelaria,Atlántico,CO,-74.8806,10.4592,11635,NA
1293,Candelaria,Campeche,MX,-91.0461,18.1844,9812,NA
1294,Candelaria,Quezon,PH,121.4233,13.9311,137881,SA
1295,Canelones,Canelones,UY,-56.2778,-34.5228,19865,NA
1296,Canillo,Canillo,AD,1.6009,42.5664,4103,AS
1297,Canillá,Quiché,GT,-90.8481,15.1671,9073,SA
1298,Cankuzo,Cankuzo,BI,30.5528,-3.2194,3624,EU
1299,Cantanhede,Coimbra,PT,-8.5941,40.3462,36595,NA
1300,Cantaura,Anzoátegui,VE,-64.3564,9.3005,89552,AF
1301,Cantel,Quetzaltenango,GT,-91.4555,14.8112,32221,EU
1302,Cantemir,Cantemir,MD,28.2008,46.2781,3429,SA
1303,Cao Bằng,Cao Bằng,VN,106.25,22.6731,41112,NA
1304,Cao Lãnh,Đồng Tháp,VN,105.6331,10.4603,149837,EU
1305,Cap-Haïtien,Nord,HT,-72.2,19.75,190289,AS
1306,Cape Coast,Central,GH,-1.25,5.1,143015,AS
1307,Cape Town,Western Cape,ZA,18.425,-33.925,433688,NA
1308,Capelle aan den IJssel,Zuid-Holland,NL,4.5782,51.9357,66514,AF
1309,Capellen,Capellen,LU,5.9897,49.6444,1986,AF
1310,Capulhuac,México,MX,-99.4667,19.2,30838,EU
1311,Caracas,Distrito Capital,VE,-66.9333,10.5,1943901,EU
1312,Caramanta,Antioquia,CO,-75.6442,5.5467,5410,NA
1313,Carbonia,Sardegna,IT,8.522,39.1668,28265,SA
1314,Carcassonne,Occitanie,FR,2.35,43.21,46513,SA
1315,Carepa,Antioquia,CO,-76.6553,7.7581,47932,EU
1316,Carhué,Buenos Aires,AR,-62.7333,-37.1667,7190,EU
1317,Caripito,Monagas,VE,-63.1048,10.111,64955,SA
1318,Carlos A. Carrillo,Veracruz,MX,-95.75,18.3667,24565,SA
1319,Carlos Manuel de Céspedes,Camagüey,CU,-78.2775,21.5767,224488,SA
1320,Carlow,Carlow,IE,-6.9317,52.8306,24272,NA
1321,Carmen de Areco,Buenos Aires,AR,-59.8167,-34.3833,14692,NA
1322,Carora,Lara,VE,-70.0783,10.1692,112600,EU
1323,Carpentras,Provence-Alpes-Côte d’Azur,FR,5.0489,44.0558,28798,SA
1324,Carrazeda de Anciães,Bragança,PT,-7.3,41.25,6373,SA
1325,Carson City,Nevada,US,-119.7474,39.1512,58756,EU
1326,Cartagena,Bolívar,CO,-75.5253,10.4236,1036412,EU
1327,Cartagena del Chairá,Caquetá,CO,-74.8467,1.3361,35473,NA
1328,Cartago,Cartago,CR,-83.9167,9.8667,22775,SA
1329,Cartago,Valle del Cauca,CO,-75.91,4.75,134827,SA
1330,Cartaxo,Santarém,PT,-8.7833,39.15,24462,NA
1331,Carúpano,Sucre,VE,-63.2403,10.6722,173877,SA
1332,Casablanca,Casablanca-Settat,MA,-7.62,33.5992,4370000,EU
1333,Cascais,Lisboa,PT,-9.4206,38.6969,206479,SA
1334,Caseros,Buenos Aires,AR,-58.5333,-34.6167,95785,AF
1335,Caserta,Campania,IT,14.3333,41.0667,75561,EU
1336,Casilda,Santa Fe,AR,-61.1681,-33.0442,35058,SA
1337,Castaños,Coahuila de Zaragoza,MX,-101.4167,26.7833,27314,EU
1338,Castelli,Chaco,AR,-60.6167,-25.95,9421,SA
1339,Castellón de la Plana,Valencia,ES,-0.0331,39.9831,172589,NA
1340,Castelo Branco,Castelo Branco,PT,-7.4931,39.8228,56109,SA
1341,Castelsarrasin,Occitanie,FR,1.1069,44.04,13934,EU
1342,Castillo de Teayo,Veracruz,MX,-97.6333,20.75,20037,EU
1343,Castres,Occitanie,FR,2.25,43.6,41795,EU
1344,Castricum,Noord-Holland,NL,4.6583,52.5517,35772,NA
1345,Castries,Castries,LC,-60.9833,14.0167,70000,EU
1346,Castro,Los Lagos,CL,-73.7643,-42.4824,33417,EU
1347,Castro Daire,Viseu,PT,-7.9333,40.9,15339,NA
1348,Castro Marim,Faro,PT,-7.45,37.2167,6747,SA
1349,Castro Verde,Beja,PT,-8.0819,37.6976,7276,EU
1350,Catamarca,Catamarca,AR,-65.7792,-28.4686,159139,EU
1351,Catania,Sicilia,IT,15.0873,37.5027,311584,EU
1352,Catanzaro,Calabria,IT,16.5875,38.91,89718,SA
1353,Catarina,Masaya,NI,-86.0751,11.9119,7524,EU
1354,Catarman,Northern Samar,PH,124.65,12.45,97879,EU
1355,Catbalogan,Samar,PH,124.8833,11.7833,106440,NA
1356,Catemaco,Veracruz,MX,-95.1167,18.4167,27615,AS
1357,Catia La Mar,Vargas,VE,-67.0303,10.6038,661897,AS
1358,Catió,Tombali,GW,-15.25,11.2833,26999,NA
1359,Cauquenes,Maule,CL,-72.3154,-35.9671,31362,SA
1360,Caxito,Bengo,AO,13.6642,-8.5785,77276,AF
1361,Cazones de Herrera,Veracruz,MX,-97.3,20.7,23675,SA
1362,Cañada de Gómez,Santa Fe,AR,-61.4,-32.8167,29205,AF
1363,Cebu City,Cebu,PH,123.902,10.293,964169,NA
1364,Cegléd,Pest,HU,19.7981,47.1772,35334,SA
1365,Celaya,Guanajuato,MX,-100.8122,20.5222,494304,AS
1366,Celestún,Yucatán,MX,-90.4,20.8583,8389,EU
1367,Celje,Celje,SI,15.2641,46.2291,37872,NA
1368,Celldömölk,Vas,HU,17.1525,47.2575,10646,NA
1369,Celle,Lower Saxony,DE,10.0825,52.6256,69602,EU
1370,Celorico da Beira,Guarda,PT,-7.4,40.6333,7693,EU
1371,Celorico de Basto,Braga,PT,-8.0022,41.3869,20098,EU
1372,Cencheng,Guangxi,CN,111.0186,22.9297,772113,EU
1373,Centar Župa,Centar Župa,MK,20.5578,41.4775,466,EU
1374,Cereté,Córdoba,CO,-75.7911,8.8867,83917,AS
1375,Cergy,Île-de-France,FR,2.0631,49.0361,66322,EU
1376,Cerknica,Cerknica,SI,14.3581,45.7964,4018,SA
1377,Cerrillos,Salta,AR,-65.4833,-24.9,11498,EU
1378,Cerritos,San Luis Potosí,MX,-100.2783,22.4275,14804,EU
1379,Cerro Azul,Veracruz,MX,-97.7331,21.2,23573,SA
1380,Cerro de Pasco,Pasco,PE,-76.2625,-10.6864,58899,NA
1381,Cestica,Varaždinska Županija,HR,16.12,46.37,5678,NA
1382,Cestos City,River Cess,LR,-9.5817,5.4697,2578,SA
1383,Cetinje,Cetinje,ME,18.9219,42.3933,13991,EU
1384,Ceyhan,Adana,TR,35.8139,37.0283,41124,AF
1385,Ceylanpınar,Şanlıurfa,TR,40.0489,36.8461,25781,EU
1386,Cha-am,Phetchaburi,TH,99.9683,12.7992,35581,AS
1387,Chacabuco,Buenos Aires,AR,-60.49,-34.65,34587,AS
1388,Chachapoyas,Amazonas,PE,-77.85,-6.2167,32026,AS
1389,Chachoengsao,Chachoengsao,TH,101.0703,13.6903,39570,SA
1390,Chaek,Naryn,KG,74.51,41.93,7009,SA
1391,Chaguanas,Chaguanas,TT,-61.4075,10.5144,83489,AS
1392,Chaguaramas,Guárico,VE,-66.2525,9.3385,15000,AS
1393,Chai Nat,Chai Nat,TH,100.1283,15.1872,12541,NA
1394,Chai Prakan,Chiang Mai,TH,99.1403,19.7322,16090,SA
1395,Chaigoubu,Hebei,CN,114.4157,40.6687,73028,AS
1396,Chaitén,Los Lagos,CL,-72.7088,-42.9193,5071,AS
1397,Chaiwan,Udon Thani,TH,103.2281,17.285,8297,AS
1398,Chaiya,Surat Thani,TH,99.2728,9.3778,7736,SA
1399,Chaiyaphum,Chaiyaphum,TH,102.0311,15.8056,36923,AS
1400,Chaiyo,Ang Thong,TH,100.4702,14.6666,12710,AS
1401,Chajul,Quiché,GT,-91.0347,15.4872,31780,AS
1402,Chake Chake,Pemba South,TZ,39.77,-5.2395,49959,AS
1403,Chalatenango,Chalatenango,SV,-88.9333,14.0333,29271,NA
1404,Chalco,México,MX,-98.8975,19.2647,310130,AF
1405,Chalkída,Stereá Elláda,GR,23.595,38.4625,59125,NA
1406,Chalma,Veracruz,MX,-98.4,21.2167,13479,NA
1407,Chalon-sur-Saône,Bourgogne-Franche-Comté,FR,4.8528,46.7806,44810,EU
1408,Chaltyr,Rostovskaya Oblast’,RU,39.5,47.2833,15334,NA
1409,Chalándri,Attikí,GR,23.8,38.0167,74192,EU
1410,Cham,Bavaria,DE,12.6658,49.2183,16907,EU
1411,Chambas,Ciego de Ávila,CU,-78.9133,22.1967,41000,EU
1412,Chambéry,Auvergne-Rhône-Alpes,FR,5.9118,45.57,58833,EU
1413,Chamical,La Rioja,AR,-66.3133,-30.3592,8989,NA
1414,Champerico,Retalhuleu,GT,-91.914,14.293,35000,EU
1415,Champotón,Campeche,MX,-90.7167,19.35,26636,SA
1416,Chamusca,Santarém,PT,-8.4833,39.35,10120,NA
1417,Chanal,Chiapas,MX,-92.2214,16.6489,12181,NA
1418,Chandīgarh,Chandīgarh,IN,76.7911,30.7353,1026459,EU
1419,Changchun,Jilin,CN,125.2,43.9,7674439,NA
1420,Changde,Hunan,CN,111.6839,29.0397,5827200,AS
1421,Changhua,Changhua,TW,120.5333,24.0667,750000,AS
1422,Changling,Jilin,CN,123.99,44.27,55841,AS
1423,Changsha,Guangdong,CN,112.6877,22.3762,717700,AS
1424,Changsha,Hunan,CN,112.9709,28.1987,8154700,AS
1425,Changting,Fujian,CN,116.3167,25.867,87458,AS
1426,Changwon,Gyeongnam,KR,128.6811,35.2281,1046054,AS
1427,Changzhi,Shanxi,CN,113.097,36.1953,3334565,AS
1428,Changzhou,Jiangsu,CN,119.9692,31.8122,5278121,AS
1429,Chang’an,Hunan,CN,113.448,29.4761,537500,AS
1430,Chaniá,Kríti,GR,24.0167,35.5167,53910,AS
1431,Chanthaburi,Chanthaburi,TH,102.1039,12.6086,23835,AS
1432,Chaozhou,Guangdong,CN,116.63,23.67,2656600,EU
1433,Chapa de Mota,México,MX,-99.5269,19.8144,21746,AS
1434,Chapala,Jalisco,MX,-103.1897,20.2933,21596,AS
1435,Chaparral,Tolima,CO,-75.4847,3.7236,47397,NA
1436,Chapultenango,Chiapas,MX,-93.1333,17.3333,7644,NA
1437,Charallave,Miranda,VE,-66.8622,10.2431,117707,SA
1438,Charalá,Santander,CO,-73.1467,6.2875,10211,NA
1439,Charata,Chaco,AR,-61.1881,-27.2144,18297,SA
1440,Charleroi,Wallonia,BE,4.4442,50.4167,201816,SA
1441,Charleston,West Virginia,US,-81.6323,38.3484,138706,SA
1442,Charleville-Mézières,Grand Est,FR,4.7161,49.7719,46391,EU
1443,Charlottetown,Prince Edward Island,CA,-63.1347,46.2403,42602,NA
1444,Charoen Sin,Sakon Nakhon,TH,103.5422,17.5837,6869,EU
1445,Charsadda,Khyber Pakhtunkhwa,PK,71.7308,34.1453,105414,NA
1446,Chartres,Centre-Val de Loire,FR,1.484,48.456,38426,AS
1447,Chascomús,Buenos Aires,AR,-58.0089,-35.575,21054,AS
1448,Chattogram,Chittagong,BD,91.8325,22.335,2581643,EU
1449,Chaumont,Grand Est,FR,5.1389,48.1117,21990,SA
1450,Chaves,Vila Real,PT,-7.4707,41.7399,41243,AS
1451,Chavinda,Michoacán de Ocampo,MX,-102.45,20.0167,10258,EU
1452,Chaïdári,Attikí,GR,23.65,38.0167,45642,EU
1453,Chañaral,Atacama,CL,-70.6224,-26.3479,13543,NA
1454,Cheboksary,Chuvashiya,RU,47.25,56.1333,489498,EU
1455,Chechelnyk,Vinnyts’ka Oblast’,UA,29.3622,48.2122,5002,SA
1456,Chelyabinsk,Chelyabinskaya Oblast’,RU,61.4,55.15,1202371,EU
1457,Chemnitz,Saxony,DE,12.9167,50.8333,243487,EU
1458,Chengdu,Sichuan,CN,104.0633,30.66,11920000,EU
1459,Chengguan,Henan,CN,113.6976,35.5256,740435,EU
1460,Chengjiao,Henan,CN,114.0593,35.4043,495744,AS
1461,Chengjiao Chengguanzhen,Gansu,CN,104.0306,34.4362,67826,AS
1462,Chengxiang,Jiangsu,CN,121.1043,31.4515,709500,AS
1463,Chennai,Tamil Nādu,IN,80.275,13.0825,11564000,AS
1464,Chenzhou,Hunan,CN,113.0267,25.7989,4744500,AS
1465,Cheongju,Chungbuk,KR,127.4897,36.6372,833276,AS
1466,Chepes,La Rioja,AR,-66.6,-31.35,6020,AS
1467,Cherbourg,Normandie,FR,-1.6,49.6333,60991,AS
1468,Cherkasy,Cherkas’ka Oblast’,UA,32.0597,49.4444,276360,SA
1469,Cherkessk,Karachayevo-Cherkesiya,RU,42.0575,44.2222,122395,EU
1470,Chernihiv,Chernihivs’ka Oblast’,UA,31.2947,51.4939,294522,EU
1471,Chernihivka,Zaporiz’ka Oblast’,UA,36.2023,47.1942,5813,EU
1472,Chernivtsi,Chernivets’ka Oblast’,UA,25.9344,48.2908,266550,EU
1473,Chernyakhovsk,Kaliningradskaya Oblast’,RU,21.8167,54.6333,35888,EU
1474,Chervonohrad,L’vivs’ka Oblast’,UA,24.2275,50.3822,82395,EU
1475,Cherykaw,Mahilyowskaya Voblasts’,BY,31.3667,53.5667,7910,EU
1476,Cherán,Michoacán de Ocampo,MX,-101.95,19.6833,19081,EU
1477,Chetumal,Quintana Roo,MX,-88.3053,18.5036,169028,EU
1478,Cheyenne,Wyoming,US,-104.79,41.1351,79484,NA
1479,Chełm,Lubelskie,PL,23.4833,51.1333,61588,NA
1480,Chełmno,Kujawsko-Pomorskie,PL,18.4261,53.3492,20428,NA
1481,Chiang Kham,Phayao,TH,100.3,19.5233,6748,EU
1482,Chiang Klang,Nan,TH,100.8739,19.293,9721,EU
1483,Chiang Mai,Chiang Mai,TH,98.9833,18.7889,132634,AS
1484,Chiang Rai,Chiang Rai,TH,99.8275,19.9094,70610,AS
1485,Chiapa de Corzo,Chiapas,MX,-93.0169,16.7083,45077,AS
1486,Chiatura,Imereti,GE,43.2819,42.2903,12803,AS
1487,Chiayi,Chiayi,TW,120.4497,23.48,251938,NA
1488,Chiba,Chiba,JP,140.1064,35.6073,981738,AS
1489,Chichicastenango,Quiché,GT,-91.1105,14.9442,107193,AS
1490,Chichigalpa,Chinandega,NI,-87.0333,12.5667,46185,AS
1491,Chichihualco,Guerrero,MX,-99.674,17.655,10079,NA
1492,Chiclayo,Lambayeque,PE,-79.8366,-6.763,552508,NA
1493,Chicoloapan,México,MX,-98.9,19.4167,175053,NA
1494,Chicomuselo,Chiapas,MX,-92.2833,15.7442,7083,SA
1495,Chiconcuac,México,MX,-98.9,19.55,19656,NA
1496,Chiconquiaco,Veracruz,MX,-96.8167,19.75,14394,NA
1497,Chieti,Abruzzo,IT,14.1674,42.3511,50770,NA
1498,Chifeng,Inner Mongolia,CN,118.9223,42.2663,4341245,NA
1499,Chigorodó,Antioquia,CO,-76.6814,7.6697,84183,EU
1500,Chihuahua,Chihuahua,MX,-106.0889,28.6353,878062,AS
1501,Chilapa de Álvarez,Guerrero,MX,-99.1778,17.5944,120790,SA
1502,Chilcuautla,Hidalgo,MX,-99.2333,20.3333,15284,NA
1503,Chilecito,La Rioja,AR,-67.5,-29.1667,33724,NA
1504,Chillán,Ñuble,CL,-72.1033,-36.6067,164270,NA
1505,Chilpancingo,Guerrero,MX,-99.5,17.55,182387,SA
1506,Chimalhuacán,México,MX,-98.9,19.4167,614453,SA
1507,Chimaltenango,Chimaltenango,GT,-90.8208,14.6622,43900,NA
1508,Chimboy Shahri,Qoraqalpog‘iston,UZ,59.7708,42.9311,36917,NA
1509,Chimichagua,Cesar,CO,-73.8133,9.2578,30303,NA
1510,Chimoio,Manica,MZ,33.45,-19.1167,238976,AS
1511,Chinampa de Gorostiza,Veracruz,MX,-97.7333,21.3667,16741,SA
1512,Chinandega,Chinandega,NI,-87.1297,12.6242,121793,AF
1513,Chinautla,Guatemala,GT,-90.5,14.7029,77071,NA
1514,Chinggil,Xinjiang,CN,90.3794,46.666,16098,NA
1515,Chinhoyi,Mashonaland West,ZW,30.2,-17.35,56794,NA
1516,Chiniot,Punjab,PK,72.9833,31.7167,477781,AS
1517,Chinique,Quiché,GT,-91.0269,15.0411,8009,AF
1518,Chinon,Centre-Val de Loire,FR,0.2428,47.1669,8145,AS
1519,Chinsali,Muchinga,ZM,32.06,-10.5496,14015,NA
1520,Chinú,Córdoba,CO,-75.3981,9.1097,50313,EU
1521,Chipata,Eastern,ZM,32.6453,-13.6386,98416,AF
1522,Chiquilistlán,Jalisco,MX,-103.8617,20.0896,6102,SA
1523,Chiquimula,Chiquimula,GT,-89.5333,14.7833,79815,AF
1524,Chiquimulilla,Santa Rosa,GT,-90.3822,14.0858,12842,NA
1525,Chiquinquirá,Boyacá,CO,-73.8164,5.6175,85274,NA
1526,Chiradzulu,Chiradzulu,MW,35.1407,-15.6746,1580,NA
1527,Chisec,Alta Verapaz,GT,-90.3217,15.8125,69325,SA
1528,Chisinau,Chişinău,MD,28.8353,47.0228,639000,AF
1529,Chita,Boyacá,CO,-72.4725,6.1878,9542,NA
1530,Chita,Zabaykal’skiy Kray,RU,113.5,52.0333,347088,EU
1531,Chitaraque,Boyacá,CO,-73.4469,6.0283,5687,SA
1532,Chitipa,Chitipa,MW,33.2697,-9.7024,13412,EU
1533,Chitral,Khyber Pakhtunkhwa,PK,71.7889,35.8511,31100,SA
1534,Chitré,Herrera,PA,-80.4333,7.9667,46191,AF
1535,Chivilcoy,Buenos Aires,AR,-60.0167,-34.9,54514,AS
1536,Chivolo,Magdalena,CO,-74.6214,10.0264,15960,NA
1537,Chizhou,Anhui,CN,117.4849,30.6583,1402518,SA
1538,Chlef,Chlef,DZ,1.3317,36.1647,155134,SA
1539,Chocamán,Veracruz,MX,-97.0328,19.0122,21102,AS
1540,Chocontá,Cundinamarca,CO,-73.6825,5.1467,25257,AF
1541,Chodzież,Wielkopolskie,PL,16.9122,52.9901,19100,NA
1542,Choele Choel,Río Negro,AR,-65.6542,-39.2858,10146,SA
1543,Choix,Sinaloa,MX,-108.3219,26.7061,9306,EU
1544,Chojnice,Pomorskie,PL,17.557,53.6955,39937,SA
1545,Chok Chai,Nakhon Ratchasima,TH,102.1652,14.7284,12568,NA
1546,Cholet,Pays de la Loire,FR,-0.8783,47.06,54186,EU
1547,Cholpon-Ata,Ysyk-Köl,KG,77.0833,42.65,11520,AS
1548,Chom Thong,Chiang Mai,TH,98.6758,18.418,9777,EU
1549,Choma,Southern,ZM,26.97,-16.8095,46746,AS
1550,Chon Buri,Chon Buri,TH,100.985,13.3611,29961,AS
1551,Chongqing,Chongqing,CN,106.5069,29.55,8261000,AF
1552,Chongshan,Hainan,CN,109.5117,18.7787,107100,AS
1553,Chongzuo,Guangxi,CN,107.3667,22.4167,2099400,AS
1554,Chonnabot,Khon Kaen,TH,102.6193,16.084,8145,AS
1555,Chornomorske,"Krym, Avtonomna Respublika",UA,32.705,45.5031,11039,AS
1556,Chortkiv,Ternopil’s’ka Oblast’,UA,25.8,49.0167,28393,AS
1557,Chortoq,Namangan,UZ,71.8153,41.0689,35615,EU
1558,Chorzów,Śląskie,PL,18.95,50.3,106846,EU
1559,Chos Malal,Neuquén,AR,-70.2667,-37.3833,13092,AS
1560,Choszczno,Zachodniopomorskie,PL,15.4,53.1667,15109,EU
1561,Choybalsan,Dornod,MN,114.5228,48.0706,38150,SA
1562,Christchurch,Canterbury,NZ,172.6365,-43.5309,383200,EU
1563,Chrysoúpoli,Anatolikí Makedonía kai Thráki,GR,24.7,40.9833,8885,AS
1564,Chrzanów,Małopolskie,PL,19.4,50.1333,36575,OC
1565,Chuarrancho,Guatemala,GT,-90.5167,14.8167,7091,EU
1566,Chugqênsumdo,Qinghai,CN,101.4866,33.4352,6834,EU
1567,Chuhuiv,Kharkivs’ka Oblast’,UA,36.6756,49.8353,33144,NA
1568,Chuimatan,Gansu,CN,102.8771,35.7166,26044,AS
1569,Chum Phae,Khon Kaen,TH,102.1104,16.5431,31597,EU
1570,Chumbicha,Catamarca,AR,-66.2333,-28.8666,2572,AS
1571,Chumphon,Chumphon,TH,99.18,10.4939,33516,AS
1572,Chumsaeng,Nakhon Sawan,TH,100.311,15.898,7942,SA
1573,Chuncheon,Gangwon,KR,127.7342,37.8747,281596,AS
1574,Chuqung,Qinghai,CN,97.0637,33.3743,10659,AS
1575,Chur,Graubünden,CH,9.5297,46.8521,35038,AS
1576,Churumuco de Morelos,Michoacán de Ocampo,MX,-101.6333,18.6167,15455,AS
1577,Chyhyryn,Cherkas’ka Oblast’,UA,32.6667,49.0833,8658,EU
1578,Châlons-en-Champagne,Grand Est,FR,4.365,48.9575,44246,NA
1579,Château-Gontier,Pays de la Loire,FR,-0.7028,47.8286,11805,EU
1580,Château-Thierry,Hauts-de-France,FR,3.4031,49.0464,15351,EU
1581,Châteaubriant,Pays de la Loire,FR,-1.3761,47.7169,12011,EU
1582,Châteaudun,Centre-Val de Loire,FR,1.3378,48.0708,13078,EU
1583,Châteaulin,Bretagne,FR,-4.09,48.1967,5189,EU
1584,Châteauroux,Centre-Val de Loire,FR,1.6911,46.8103,43442,EU
1585,Châtellerault,Nouvelle-Aquitaine,FR,0.5461,46.8178,31733,EU
1586,Chía,Cundinamarca,CO,-74.0528,4.8633,97896,EU
1587,Chíos,Voreío Aigaío,GR,26.1375,38.3725,26850,EU
1588,Chíquiza,Boyacá,CO,-73.4889,5.61,5484,SA
1589,Chābahār,Sīstān va Balūchestān,IR,60.6236,25.2836,106739,EU
1590,Chādegān,Eşfahān,IR,50.6286,32.7683,7037,SA
1591,Chārīkār,Parwān,AF,69.1679,35.0183,53676,AS
1592,Ch’ŏngjin,Hambuk,KP,129.7831,41.8,667929,AS
1593,Cidade Velha,Ribeira Grande de Santiago,CV,-23.6042,14.9167,2148,AS
1594,Ciechanów,Mazowieckie,PL,20.6106,52.8817,42965,AS
1595,Ciego de Ávila,Ciego de Ávila,CU,-78.7631,21.8481,143449,AF
1596,Cienfuegos,Cienfuegos,CU,-80.4364,22.1456,164924,EU
1597,Cieszyn,Śląskie,PL,18.6333,49.75,34513,NA
1598,Cihanbeyli,Konya,TR,32.9281,38.6581,6739,NA
1599,Cilacap,Jawa Tengah,ID,109.017,-7.7167,1174964,EU
1600,Cimitarra,Santander,CO,-73.95,6.3133,49593,AS
1601,Cimişlia,Cimişlia,MD,28.7842,46.52,11997,AS
1602,Cinfães,Viseu,PT,-8.0833,41.0667,20427,SA
1603,Circasia,Quindío,CO,-75.6347,4.62,28162,EU
1604,Ciro Redondo,Ciego de Ávila,CU,-78.7031,22.0189,28370,EU
1605,Cisneros,Antioquia,CO,-75.0886,6.5383,11555,SA
1606,Citlaltépec,Veracruz,MX,-97.8784,21.3366,12109,NA
1607,City of Isabela,Basilan,PH,121.9667,6.7,130379,SA
1608,City of Parañaque,Parañaque,PH,121.0167,14.4667,689992,NA
1609,Ciudad Acuña,Coahuila de Zaragoza,MX,-100.9317,29.3242,160225,AS
1610,Ciudad Altamirano,Guerrero,MX,-100.6667,18.3583,24533,AS
1611,Ciudad Apodaca,Nuevo León,MX,-100.1833,25.7833,523370,NA
1612,Ciudad Ayala,Morelos,MX,-98.9833,18.7667,6777,NA
1613,Ciudad Benito Juárez,Nuevo León,MX,-100.0833,25.65,260683,NA
1614,Ciudad Bolívar,Antioquia,CO,-76.0203,5.8494,27458,NA
1615,Ciudad Bolívar,Bolívar,VE,-63.55,8.1167,567953,NA
1616,Ciudad Cerralvo,Nuevo León,MX,-99.6147,26.0899,7169,SA
1617,Ciudad Choluteca,Choluteca,HN,-87.2167,13.3167,120000,SA
1618,Ciudad Constitución,Baja California Sur,MX,-111.6703,25.0322,43805,NA
1619,Ciudad Cuauhtémoc,Veracruz,MX,-97.8333,22.1833,57646,NA
1620,Ciudad Darío,Matagalpa,NI,-86.1167,12.7333,41014,NA
1621,Ciudad General Escobedo,Nuevo León,MX,-100.1583,25.7933,299364,NA
1622,Ciudad Guadalupe Victoria,Durango,MX,-104.1225,24.4497,16506,NA
1623,Ciudad Guayana,Bolívar,VE,-62.6517,8.3596,751331,NA
1624,Ciudad Guzmán,Jalisco,MX,-103.4667,19.7,97750,NA
1625,Ciudad Hidalgo,Chiapas,MX,-92.1497,14.6792,14606,SA
1626,Ciudad Hidalgo,Michoacán de Ocampo,MX,-100.5536,19.6917,122619,NA
1627,Ciudad Lerdo,Durango,MX,-103.5167,25.55,79669,NA
1628,Ciudad López Mateos,México,MX,-99.2833,19.55,489937,NA
1629,Ciudad Madero,Tamaulipas,MX,-97.8333,22.25,197216,NA
1630,Ciudad Mante,Tamaulipas,MX,-98.95,22.7333,84787,NA
1631,Ciudad Manuel Doblado,Guanajuato,MX,-101.9533,20.7303,37145,NA
1632,Ciudad Melchor Múzquiz,Coahuila de Zaragoza,MX,-101.5164,27.8775,38992,NA
1633,Ciudad Melchor de Mencos,Petén,GT,-89.15,17.0667,20273,NA
1634,Ciudad Miguel Alemán,Tamaulipas,MX,-99.0253,26.4003,19998,NA
1635,Ciudad Obregón,Sonora,MX,-109.9389,27.4939,329404,NA
1636,Ciudad Ojeda,Zulia,VE,-71.3,10.2,122124,NA
1637,Ciudad Real,Castille-La Mancha,ES,-3.9167,38.9833,75104,NA
1638,Ciudad Río Bravo,Tamaulipas,MX,-98.0889,25.9861,101481,SA
1639,Ciudad Sabinas Hidalgo,Nuevo León,MX,-100.1833,26.5,32047,EU
1640,Ciudad Santa Catarina,Nuevo León,MX,-100.45,25.6833,306322,NA
1641,Ciudad Serdán,Puebla,MX,-97.45,18.9833,46778,NA
1642,Ciudad Tecún Umán,San Marcos,GT,-92.1333,14.6833,33426,NA
1643,Ciudad Tula,Tamaulipas,MX,-99.72,23.0,10043,NA
1644,Ciudad Valles,San Luis Potosí,MX,-99.0167,21.9833,177022,NA
1645,Ciudad Victoria,Tamaulipas,MX,-99.1333,23.7333,305155,NA
1646,Ciudad Vieja,Sacatepéquez,GT,-90.7667,14.5233,30565,NA
1647,Ciudad de Atlixco,Puebla,MX,-98.45,18.9,86690,NA
1648,Ciudad de Huajuapam de León,Oaxaca,MX,-97.7764,17.8097,45321,NA
1649,Ciudad de Huitzuco,Guerrero,MX,-99.35,18.3,16025,NA
1650,Ciudad del Carmen,Campeche,MX,-91.8333,18.6333,169466,NA
1651,Ciudad del Este,Alto Paraná,PY,-54.6167,-25.5167,320782,NA
1652,Cizre,Şırnak,TR,42.1848,37.3302,50023,NA
1653,Ciénaga,Magdalena,CO,-74.2467,11.0067,129414,SA
1654,Ciénaga de Oro,Córdoba,CO,-75.6211,8.875,64226,AS
1655,Ciénega de Flores,Nuevo León,MX,-100.1833,25.95,14268,SA
1656,Claveria,Masbate,PH,123.2457,12.9035,42142,SA
1657,Clermont,Hauts-de-France,FR,2.4125,49.3789,10183,NA
1658,Clermont-Ferrand,Auvergne-Rhône-Alpes,FR,3.0824,45.7831,146734,AS
1659,Clervaux,Clervaux,LU,6.0314,50.0547,1468,EU
1660,Cloppenburg,Lower Saxony,DE,8.0439,52.8478,34913,EU
1661,Cluj-Napoca,Cluj,RO,23.5594,46.78,324576,EU
1662,Coacoatzintla,Veracruz,MX,-96.9333,19.65,10482,EU
1663,Coalcomán de Vázquez Pallares,Michoacán de Ocampo,MX,-103.1667,18.7833,18444,EU
1664,Coapilla,Chiapas,MX,-93.1667,17.1333,9210,NA
1665,Coatepec,Veracruz,MX,-96.9586,19.4553,92127,NA
1666,Coatepec Harinas,México,MX,-99.7167,18.9,36269,NA
1667,Coatepeque,Quetzaltenango,GT,-91.8667,14.7,300000,NA
1668,Coatzacoalcos,Veracruz,MX,-94.4333,18.15,319187,NA
1669,Cobija,Pando,BO,-68.7537,-11.0183,46267,NA
1670,Coburg,Bavaria,DE,10.9579,50.2585,41249,NA
1671,Cobán,Alta Verapaz,GT,-90.3667,15.4833,228664,SA
1672,Cochabamba,Cochabamba,BO,-66.157,-17.3935,632013,EU
1673,Cochem,Rhineland-Palatinate,DE,7.1667,50.1469,5312,NA
1674,Cochrane,Aysén,CL,-72.5732,-47.2539,2789,SA
1675,Cocotitlán,México,MX,-98.85,19.2167,12142,EU
1676,Coesfeld,North Rhine-Westphalia,DE,7.1675,51.9458,36217,SA
1677,Coevorden,Drenthe,NL,6.75,52.6667,35483,NA
1678,Cognac,Nouvelle-Aquitaine,FR,-0.3292,45.6958,18628,EU
1679,Cogua,Cundinamarca,CO,-73.9794,5.0619,24092,EU
1680,Coimbra,Coimbra,PT,-8.4289,40.2111,143396,EU
1681,Cojutepeque,Cuscatlán,SV,-88.9333,13.7167,48411,SA
1682,Colima,Colima,MX,-103.7247,19.2433,150673,EU
1683,Colina,Región Metropolitana,CL,-70.6833,-33.2,146207,NA
1684,Colipa,Veracruz,MX,-96.7,19.9167,5718,NA
1685,Colmar,Grand Est,FR,7.3556,48.0817,68703,SA
1686,Colombo,Western,LK,79.8333,6.9167,752993,NA
1687,Colonia del Sacramento,Colonia,UY,-57.8442,-34.4714,26231,EU
1688,Colosó,Sucre,CO,-75.3525,9.4942,6013,AS
1689,Colotenango,Huehuetenango,GT,-91.7156,15.4054,25900,SA
1690,Columbia,South Carolina,US,-80.9037,34.0376,560041,SA
1691,Columbus,Ohio,US,-82.985,39.9862,1562009,NA
1692,Colón,Colón,PA,-79.875,9.365,204000,NA
1693,Colón,Entre Ríos,AR,-58.1419,-32.2241,24835,NA
1694,Colón,Matanzas,CU,-80.9067,22.7225,72000,NA
1695,Comala,Colima,MX,-103.7603,19.3208,9442,SA
1696,Comandante Fontana,Formosa,AR,-59.6833,-25.3333,4277,NA
1697,Comapa,Jutiapa,GT,-89.7497,14.1114,23715,NA
1698,Comapa,Veracruz,MX,-96.8666,19.1667,19859,SA
1699,Comayagua,Comayagua,HN,-87.65,14.46,144785,NA
1700,Comendador,El Valle,DO,-71.707,18.876,43894,NA
1701,Comitancillo,San Marcos,GT,-91.7486,15.0906,59357,NA
1702,Comitán,Chiapas,MX,-92.1342,16.2511,170000,NA
1703,Commercy,Grand Est,FR,5.5917,48.7642,5399,NA
1704,Como,Lombardy,IT,9.0861,45.8103,83320,NA
1705,Comodoro Rivadavia,Chubut,AR,-67.5,-45.8667,730266,EU
1706,Compiègne,Hauts-de-France,FR,2.8231,49.4149,40542,EU
1707,Compostela,Nayarit,MX,-104.9,21.2389,17573,SA
1708,Comrat,Găgăuzia,MD,28.6572,46.3003,20113,EU
1709,Conakry,Conakry,GN,-13.6773,9.538,1667864,NA
1710,Concepción,Biobío,CL,-73.0503,-36.8271,217537,EU
1711,Concepción,Concepción,PY,-57.4414,-23.4025,45068,AF
1712,Concepción Tutuapa,San Marcos,GT,-91.7833,15.2833,59063,SA
1713,Concepción de Buenos Aires,Jalisco,MX,-103.15,19.8667,6088,SA
1714,Concepción del Uruguay,Entre Ríos,AR,-58.2333,-32.4833,72528,NA
1715,Concord,New Hampshire,US,-71.5595,43.2305,43627,NA
1716,Concordia,Antioquia,CO,-75.9075,6.0456,20271,SA
1717,Concordia,Entre Ríos,AR,-58.0169,-31.3922,149450,NA
1718,Concordia,Sinaloa,MX,-106.0675,23.2883,8328,SA
1719,Condega,Estelí,NI,-86.3985,13.365,30000,SA
1720,Condeixa-a-Nova,Coimbra,PT,-8.5,40.1167,17078,NA
1721,Condom,Occitanie,FR,0.3725,43.9575,6508,NA
1722,Condoto,Chocó,CO,-76.65,5.0917,14660,EU
1723,Conguaco,Jutiapa,GT,-90.0336,14.047,15295,EU
1724,Conkal,Yucatán,MX,-89.5208,21.0733,7173,SA
1725,Consolación del Sur,Pinar del Río,CU,-83.5172,22.5083,87500,NA
1726,Constantine,Constantine,DZ,6.6147,36.365,448374,NA
1727,Constanţa,Constanţa,RO,28.6383,44.1733,283872,NA
1728,Contamana,Loreto,PE,-75.0086,-7.3493,18921,AF
1729,Contla,Tlaxcala,MX,-98.1667,19.3333,27610,EU
1730,Contramaestre,Santiago de Cuba,CU,-76.2506,20.3,106002,SA
1731,Copacabana,Antioquia,CO,-75.5103,6.3486,73574,NA
1732,Copenhagen,Hovedstaden,DK,12.5615,55.6805,1085000,NA
1733,Copiapó,Atacama,CL,-70.3323,-27.3665,150804,SA
1734,Coquimatlán,Colima,MX,-103.8086,19.2038,19385,EU
1735,Coquimbo,Coquimbo,CL,-71.338,-29.9532,204068,SA
1736,Corella,Bohol,PH,123.9167,9.6833,9479,NA
1737,Corinto,Cauca,CO,-76.2594,3.1739,33489,SA
1738,Corinto,Chinandega,NI,-87.1833,12.4833,22000,AS
1739,Cork,Cork,IE,-8.4731,51.9,208669,SA
1740,Coro,Falcón,VE,-69.6816,11.395,284266,NA
1741,Coromoro,Santander,CO,-73.0406,6.295,7659,EU
1742,Coronda,Santa Fe,AR,-60.9167,-31.9667,18115,SA
1743,Coronel Dorrego,Buenos Aires,AR,-61.2667,-38.7,11510,SA
1744,Coronel Oviedo,Caaguazú,PY,-56.44,-25.45,88101,SA
1745,Coronel Suárez,Buenos Aires,AR,-61.9333,-37.4667,23621,SA
1746,Coroneo,Guanajuato,MX,-100.3333,20.1333,10347,SA
1747,Corozal,Corozal,BZ,-88.4,18.4,8800,SA
1748,Corozal,Sucre,CO,-75.2933,9.3169,70853,NA
1749,Corrientes,Corrientes,AR,-58.8167,-27.4833,352646,NA
1750,Cortazar,Guanajuato,MX,-100.933,20.483,61658,SA
1751,Coruche,Santarém,PT,-8.5333,38.95,19944,SA
1752,Cosalá,Sinaloa,MX,-106.6917,24.4125,6577,NA
1753,Cosamaloapan,Veracruz,MX,-95.8,18.3667,57147,EU
1754,Cosautlán,Veracruz,MX,-96.9833,19.3333,16353,NA
1755,Cosenza,Calabria,IT,16.25,39.3,67239,NA
1756,Cosne sur Loire,Bourgogne-Franche-Comté,FR,2.925,47.4103,9741,NA
1757,Cospicua,Bormla,MT,14.5222,35.8822,5395,EU
1758,Cotabato,Cotabato,PH,124.25,7.2167,325079,EU
1759,Cotija de la Paz,México,MX,-102.7047,19.81,19018,EU
1760,Cotonou,Littoral,BJ,2.518,6.402,762000,AS
1761,Cottbus,Brandenburg,DE,14.3342,51.7606,98693,NA
1762,Cotuí,Cibao Sur,DO,-70.15,19.06,76554,AF
1763,Coutances,Normandie,FR,-1.4453,49.0453,8454,EU
1764,Couva,Couva/Tabaquite/Talparo,TT,-61.45,10.4167,48858,NA
1765,Coveñas,Sucre,CO,-75.68,9.4014,11270,EU
1766,Covilhã,Castelo Branco,PT,-7.5,40.2833,51797,NA
1767,Coyaima,Tolima,CO,-75.1939,3.7975,28443,SA
1768,Coyhaique,Aysén,CL,-72.0685,-45.5712,61210,EU
1769,Coyotepec,Morelos,MX,-99.2056,19.7756,41810,SA
1770,Coyuca de Catalán,Guerrero,MX,-100.6992,18.3256,42069,SA
1771,Cozumel,Quintana Roo,MX,-86.9493,20.5104,77236,NA
1772,Craiova,Dolj,RO,23.8167,44.3333,269506,NA
1773,Cremona,Lombardy,IT,10.0333,45.1333,72077,NA
1774,Crikvenica,Primorsko-Goranska Županija,HR,14.7,45.1833,11122,EU
1775,Criuleni,Criuleni,MD,29.1614,47.2167,6708,EU
1776,Crna Trava,Crna Trava,RS,22.299,42.8101,434,EU
1777,Crotone,Calabria,IT,17.1167,39.0833,63941,EU
1778,Cruz Grande,Guerrero,MX,-99.1333,16.7333,20175,EU
1779,Cruz del Eje,Córdoba,AR,-64.8,-30.7333,52172,EU
1780,Créteil,Île-de-France,FR,2.4628,48.7911,92265,NA
1781,Csongrád,Csongrád,HU,20.1403,46.7111,16027,SA
1782,Csorna,Győr-Moson-Sopron,HU,17.25,47.6167,9799,EU
1783,Cuapiaxtla de Madero,Puebla,MX,-97.8167,18.9167,10101,EU
1784,Cuatro Ciénegas de Carranza,Coahuila de Zaragoza,MX,-102.0664,26.9861,10395,EU
1785,Cuauhtémoc,Chihuahua,MX,-106.8667,28.405,168482,NA
1786,Cuauhtémoc,Colima,MX,-103.6028,19.3281,7513,NA
1787,Cuautepec de Hinojosa,Hidalgo,MX,-98.4333,20.15,45527,NA
1788,Cuautitlán,Jalisco,MX,-104.3,19.4333,18138,NA
1789,Cuautitlán,México,MX,-99.1833,19.6833,110385,NA
1790,Cuautitlán Izcalli,México,MX,-99.25,19.65,140059,NA
1791,Cuautla,Morelos,MX,-98.95,18.8167,194786,NA
1792,Cubará,Boyacá,CO,-72.1081,7.0008,6725,NA
1793,Cubulco,Baja Verapaz,GT,-90.6306,15.1083,60112,NA
1794,Cuenca,Azuay,EC,-79.0045,-2.8974,329928,SA
1795,Cuenca,Castille-La Mancha,ES,-2.15,40.0667,53988,NA
1796,Cuencamé de Ceniceros,Durango,MX,-103.7,24.8667,8876,SA
1797,Cuernavaca,Morelos,MX,-99.2342,18.9186,338650,EU
1798,Cuerámaro,Guanajuato,MX,-101.6739,20.6258,27308,NA
1799,Cuetzalan,Puebla,MX,-97.5167,20.0333,47983,NA
1800,Cuiabá,Mato Grosso,BR,-56.0969,-15.5958,585367,NA
1801,Cuichapa,Veracruz,MX,-96.8667,18.7667,12238,NA
1802,Cuihua,Yunnan,CN,103.8906,27.7527,42262,SA
1803,Cuijk,Noord-Brabant,NL,5.8794,51.7269,24931,NA
1804,Cuilapa,Santa Rosa,GT,-90.2992,14.2783,30951,AS
1805,Cuilapan de Guerrero,Oaxaca,MX,-96.7817,16.9972,21597,EU
1806,Cuito,Bié,AO,16.9333,-12.3833,114000,NA
1807,Culemborg,Gelderland,NL,5.2333,51.95,28555,NA
1808,Culfa,Culfa,AZ,45.6308,38.9558,12500,AF
1809,Culiacán,Sinaloa,MX,-107.3939,24.8069,808416,EU
1810,Cumaná,Sucre,VE,-64.1667,10.45,374706,AS
1811,Cumaribo,Vichada,CO,-69.7956,4.4461,43138,NA
1812,Cumbal,Nariño,CO,-77.7908,0.9078,40492,SA
1813,Cuneo,Piedmont,IT,7.55,44.3833,56281,SA
1814,Cuquío,Jalisco,MX,-103.0239,20.9275,17980,SA
1815,Curicó,Maule,CL,-71.2394,-34.9854,136954,EU
1816,Curitiba,Paraná,BR,-49.2719,-25.4297,1879355,NA
1817,Curití,Santander,CO,-73.0681,6.6044,12065,SA
1818,Curumaní,Cesar,CO,-73.5425,9.1997,23018,SA
1819,Cusco,Cusco,PE,-71.9833,-13.5222,428450,SA
1820,Cuxhaven,Lower Saxony,DE,8.7,53.8667,48356,SA
1821,Cuyotenango,Suchitepéquez,GT,-91.5723,14.5421,50860,SA
1822,Częstochowa,Śląskie,PL,19.1222,50.8096,223322,EU
1823,Człuchów,Pomorskie,PL,17.3667,53.65,13869,NA
1824,Cà Mau,Cà Mau,VN,105.15,9.1833,315270,EU
1825,Cáceres,Antioquia,CO,-75.3503,7.5794,42112,EU
1826,Cáceres,Extremadura,ES,-6.3667,39.4833,95418,AS
1827,Cádiz,Andalusia,ES,-6.2975,36.535,114244,SA
1828,Cárdenas,Matanzas,CU,-81.2036,23.0428,86700,EU
1829,Cárdenas,San Luis Potosí,MX,-99.6522,22.0103,15331,EU
1830,Céret,Occitanie,FR,2.7514,42.4881,7821,NA
1831,Córdoba,Andalusia,ES,-4.7796,37.8845,322071,NA
1832,Córdoba,Bolívar,CO,-74.8272,9.5867,12266,EU
1833,Córdoba,Córdoba,AR,-64.1833,-31.4167,1329604,EU
1834,Córdoba,Nariño,CO,-77.5178,0.8533,14006,SA
1835,Córdoba,Quindío,CO,-75.6878,4.3911,5249,SA
1836,Córdoba,Veracruz,MX,-96.9347,18.8942,218153,SA
1837,Cúa,Miranda,VE,-66.8833,10.1667,214823,SA
1838,Cúcuta,Norte de Santander,CO,-72.5047,7.9075,750000,NA
1839,Călăraşi,Călăraşi,MD,28.3081,47.2544,10808,SA
1840,Călăraşi,Călăraşi,RO,27.3333,44.2,65181,SA
1841,Căuşeni,Căuşeni,MD,29.4139,46.6442,15939,EU
1842,Cēsis,Cēsu Novads,LV,25.2747,57.3131,14815,EU
1843,Cəbrayıl,Cəbrayıl,AZ,47.0261,39.4,6070,EU
1844,Cəlilabad,Cəlilabad,AZ,48.4958,39.2042,25846,EU
1845,Cần Thơ,Cần Thơ,VN,105.7833,10.0333,1237300,AS
1846,Cẩm Phả,Quảng Ninh,VN,107.2726,21.0065,156000,AS
1847,Dabancheng,Xinjiang,CN,88.306,43.3552,5540,AS
1848,Dabas,Pest,HU,19.3167,47.1833,17481,AS
1849,Dabeiba,Antioquia,CO,-76.2611,7.0014,22954,AS
1850,Dabola,Faranah,GN,-11.1167,10.75,38617,EU
1851,Dabou,Lagunes,CI,-4.3767,5.3256,72913,SA
1852,Dachau,Bavaria,DE,11.4342,48.2603,47400,AF
1853,Dadu,Sindh,PK,67.775,26.7319,146179,AF
1854,Dadukou,Sichuan,CN,101.7149,26.5849,1214121,EU
1855,Daegu,Daegu,KR,128.6,35.8667,2461002,AS
1856,Daejeon,Daejeon,KR,127.385,36.351,1475221,AS
1857,Daet,Camarines Norte,PH,122.95,14.1167,111700,AS
1858,Dagua,Valle del Cauca,CO,-76.6917,3.6575,36891,AS
1859,Dagupan City,Dagupan,PH,120.334,16.043,174302,AS
1860,Dahuaishu,Shanxi,CN,111.6743,36.2601,151037,SA
1861,Dahūk,Dahūk,IQ,42.9833,36.85,330600,AS
1862,Daiyue,Shanxi,CN,112.8056,39.5284,35894,AS
1863,Dajabón,Cibao Noroeste,DO,-71.71,19.5667,28071,AS
1864,Dakar,Dakar,SN,-17.4572,14.7319,1146053,AS
1865,Dalaba,Mamou,GN,-12.272,10.656,6349,NA
1866,Dalaguete,Cebu,PH,123.5349,9.7612,74596,AF
1867,Dalanzadgad,Ömnögovĭ,MN,104.4258,43.57,19396,AF
1868,Dalfsen,Overijssel,NL,6.2592,52.5031,28499,AS
1869,Dali,Shaanxi,CN,109.9378,34.7953,109696,AS
1870,Daloa,Sassandra-Marahoué,CI,-6.45,6.89,255168,EU
1871,Damanhūr,Al Buḩayrah,EG,30.4667,31.05,244043,AS
1872,Damascus,Dimashq,SY,36.2919,33.5131,1754000,AF
1873,Damaturu,Yobe,NG,11.9786,11.7803,255895,AF
1874,Damietta,Dumyāţ,EG,31.8214,31.4167,206664,AS
1875,Damnoen Saduak,Ratchaburi,TH,99.9545,13.5177,7399,AF
1876,Damān,Damān and Diu,IN,72.834,20.4169,39737,AF
1877,Damāvand,Tehrān,IR,52.065,35.7178,48380,AS
1878,Dan Khun Thot,Nakhon Ratchasima,TH,101.7667,15.2099,6432,AS
1879,Dangriga,Stann Creek,BZ,-88.2167,16.9667,9096,AS
1880,Dar es Salaam,Dar es Salaam,TZ,39.2833,-6.8,7461000,AS
1881,Darda,Osječko-Baranjska Županija,HR,18.6925,45.6261,5323,NA
1882,Darhan,Darhan-Uul,MN,105.9228,49.4867,74738,AF
1883,Darkūsh,Idlib,SY,36.3931,35.9925,5295,EU
1884,Darmstadt,Hesse,DE,8.65,49.8667,159207,AS
1885,Darnah,Darnah,LY,22.6391,32.7648,127974,AS
1886,Daru,Western,PG,143.2,-9.0833,12879,EU
1887,Daruvar,Bjelovarsko-Bilogorska Županija,HR,17.2167,45.6,9815,AF
1888,Darwin,Northern Territory,AU,130.8411,-12.4381,136828,OC
1889,Dar‘ā,Dar‘ā,SY,36.105,32.625,146481,EU
1890,Dashiqiao,Liaoning,CN,122.5021,40.6328,704891,OC
1891,Daugavpils,Daugavpils,LV,26.5161,55.8714,80627,AS
1892,Dauis,Bohol,PH,123.8658,9.6253,52492,AS
1893,Daun,Rhineland-Palatinate,DE,6.8319,50.1986,7974,EU
1894,Davao,Davao,PH,125.6,7.0667,1776949,AS
1895,David,Chiriquí,PA,-82.4333,8.4333,144858,EU
1896,Davos,Graubünden,CH,9.8398,46.8091,10862,AS
1897,Dawei,Taninthayi,MM,98.1867,14.0367,139900,NA
1898,Dax,Nouvelle-Aquitaine,FR,-1.05,43.71,20762,EU
1899,Dayr az Zawr,Dayr az Zawr,SY,40.15,35.3333,271800,AS
1900,Dayr Ḩāfir,Ḩalab,SY,37.704,36.1592,35409,EU
1901,Dazhou,Sichuan,CN,107.4947,31.2152,5468097,AS
1902,Daşkəsən,Daşkəsən,AZ,46.0828,40.5181,10700,AS
1903,Daşoguz,Daşoguz,TM,59.9831,41.8167,227184,AS
1904,Debar,Debar,MK,20.5272,41.525,14561,AS
1905,Debesy,Udmurtiya,RU,53.8167,57.65,5778,AS
