,city,region,country,lng,lat,population
0,A Coruña,Galicia,ES,-8.3833,43.3667,245468
1,Aachen,North Rhine-Westphalia,DE,6.0838,50.7762,248960
2,Aalborg,Nordjylland,DK,9.9166,57.0337,122219
3,Aalen,Baden-Württemberg,DE,10.0936,48.8372,68361
4,Aalsmeer,Noord-Holland,NL,4.7625,52.2639,31728
5,Aalst,Flanders,BE,4.0392,50.9383,85715
6,Aalten,Gelderland,NL,6.5808,51.925,27011
7,Aarau,Aargau,CH,8.0446,47.3923,21268
8,Aarhus,Midtjylland,DK,10.2107,56.1572,237551
9,Aasiaat,Qaasuitsup,GL,-52.8694,68.7097,3069
10,Aba,Abia,NG,7.3667,5.1167,1530000
11,Abakan,Khakasiya,RU,91.4167,53.7167,181709
12,Abancay,Apurímac,PE,-72.8833,-13.6333,72277
13,Abarkūh,Yazd,IR,53.2822,31.1289,27524
14,Abasolo,Guanajuato,MX,-101.5289,20.4511,27389
15,Abasolo,Tamaulipas,MX,-98.3733,24.0559,11862
16,Abbeville,Hauts-de-France,FR,1.8358,50.1058,22837
17,Abbottabad,Khyber Pakhtunkhwa,PK,73.2167,34.15,148587
18,Abdurahmoni Jomí,Khatlon,TJ,68.689,37.9794,8925
19,Abengourou,Comoé,CI,-3.4964,6.7297,104020
20,Abeokuta,Ogun,NG,3.35,7.15,888924
21,Abhar,Zanjān,IR,49.2181,36.1467,99285
22,Abhā,‘Asīr,SA,42.5,18.2167,236157
23,Abidjan,Abidjan,CI,-4.0267,5.3364,4980000
24,Abinsk,Krasnodarskiy Kray,RU,38.1667,44.8667,38547
25,Aboisso,Comoé,CI,-3.2,5.4667,37654
26,Abomey,Zou,BJ,1.9914,7.1853,82154
27,Abra Pampa,Jujuy,AR,-65.7,-22.7167,4480
28,Abrantes,Santarém,PT,-8.1978,39.4644,39325
29,Abu Dhabi,Abū Z̧aby,AE,54.3969,24.4511,1483000
30,Abuja,Federal Capital Territory,NG,7.4914,9.0556,1235880
31,Abéché,Ouaddaï,TD,20.8347,13.8331,76492
32,Acacoyagua,Chiapas,MX,-92.6747,15.3408,8092
33,Acacías,Meta,CO,-73.7647,3.9889,75252
34,Acala,Chiapas,MX,-92.8069,16.5533,15001
35,Acanceh,Yucatán,MX,-89.4524,20.8133,10968
36,Acapulco de Juárez,Guerrero,MX,-99.8825,16.8636,673478
37,Acarigua,Portuguesa,VE,-69.2019,9.5597,195637
38,Acatic,Jalisco,MX,-102.91,20.7803,21530
39,Acatlán,Jalisco,MX,-103.6014,20.4242,22261
40,Acatzingo,Puebla,MX,-97.7822,18.9817,52078
41,Acayucan,Veracruz,MX,-94.9103,17.9422,83817
42,Accra,Greater Accra,GH,-0.187,5.6037,2291352
43,Acevedo,Huila,CO,-75.8897,1.8047,39877
44,Achkhoy-Martan,Chechnya,RU,45.2833,43.1939,23282
45,Achí,Bolívar,CO,-74.5561,8.5692,23051
46,Actopan,Veracruz,MX,-96.6192,19.5036,43388
47,Acula,Veracruz,MX,-95.7833,18.5167,5350
48,Acámbaro,Guanajuato,MX,-100.7314,20.0361,57972
49,Acıgöl,Nevşehir,TR,34.5092,38.5503,5748
50,Ad Dammām,Ash Sharqīyah,SA,50.1,26.4333,903312
51,Ad Duraykīsh,Ţarţūs,SY,36.1346,34.8969,13244
52,Ad Dīwānīyah,Al Qādisīyah,IQ,44.9247,31.9892,391600
53,Ada,Ada,RS,20.1222,45.8014,10547
54,Adana,Adana,TR,35.325,37.0,289919
55,Addis Ababa,Ādīs Ābeba,ET,38.7369,9.0272,3041002
56,Adelaide,South Australia,AU,138.6,-34.9275,1295714
57,Aden,‘Adan,YE,45.0333,12.8,507355
58,Adilcevaz,Bitlis,TR,42.7469,38.8058,6148
59,Adjumani,Adjumani,UG,31.8097,3.3614,34700
60,Ado-Ekiti,Ekiti,NG,5.2167,7.6167,446749
61,Adrar,Adrar,DZ,-0.2939,27.8742,68276
62,Adygeysk,Adygeya,RU,39.19,44.88,12745
63,Adıyaman,Adıyaman,TR,38.2763,37.7644,22153
64,Afyonkarahisar,Afyonkarahisar,TR,30.5386,38.7581,44026
65,Afşin,Kahramanmaraş,TR,36.9167,38.25,8069
66,Agadez,Agadez,NE,7.9828,16.9959,117770
67,Agadir,Souss-Massa,MA,-9.5833,30.4167,421844
68,Agartala,Tripura,IN,91.2667,23.8333,522613
69,Agboville,Lagunes,CI,-4.2167,5.9333,81770
70,Agdangan,Quezon,PH,121.9122,13.8758,12764
71,Agen,Nouvelle-Aquitaine,FR,0.6212,44.2049,33012
72,Agrigento,Sicilia,IT,13.5765,37.3111,59329
73,Agrínio,Dytikí Elláda,GR,21.4,38.6167,46899
74,Agua Blanca,Jutiapa,GT,-89.6494,14.4833,13571
75,Agua Prieta,Sonora,MX,-109.5489,31.3258,91029
76,Agua de Dios,Cundinamarca,CO,-74.6683,4.3781,10995
77,Aguachica,Cesar,CO,-73.6153,8.3067,109621
78,Aguadas,Caldas,CO,-75.4564,5.6092,21237
79,Aguascalientes,Aguascalientes,MX,-102.296,21.876,934424
80,Aguazul,Casanare,CO,-72.5467,5.1689,43183
81,Aguiar da Beira,Guarda,PT,-7.5414,40.818,5473
82,Agustín Codazzi,Cesar,CO,-73.2369,10.0367,49233
83,Agía Paraskeví,Attikí,GR,23.8208,38.0053,59704
84,Ahar,Āz̄arbāyjān-e Sharqī,IR,47.0603,38.475,100641
85,Aheqi,Xinjiang,CN,78.4543,40.9372,11910
86,Ahlat,Bitlis,TR,42.4877,38.7542,5879
87,Ahmedabad,Gujarāt,IN,72.58,23.03,7717000
88,Ahmetli,Manisa,TR,27.9447,38.5289,9790
89,Ahram,Būshehr,IR,51.2744,28.8825,12182
90,Ahuachapán,Ahuachapán,SV,-89.845,13.9214,110511
91,Ahualulco de Mercado,Jalisco,MX,-103.9556,20.6992,23362
92,Ahumada,Chihuahua,MX,-106.5122,30.6186,8575
93,Ahvāz,Khūzestān,IR,48.6692,31.3203,1184788
94,Aichach,Bavaria,DE,11.1333,48.45,21434
95,Aihua,Yunnan,CN,100.135,24.4629,106054
96,Ailan Mubage,Xinjiang,CN,81.3167,43.9167,526745
97,Ainaro,Ainaro,TL,125.5,-8.9833,3085
98,Aioun,Hodh el Gharbi,MR,-9.6167,16.6667,1423
99,Aipe,Huila,CO,-75.2375,3.2219,29177
100,Aix-en-Provence,Provence-Alpes-Côte d’Azur,FR,5.4454,43.5263,143097
101,Aizkraukle,Aizkraukles Novads,LV,25.255,56.6008,7044
102,Ajaccio,Corsica,FR,8.7369,41.9267,70817
103,Ajdovščina,Ajdovščina,SI,13.9052,45.8884,6843
104,Ajdābiyā,Al Wāḩāt,LY,20.22,30.77,143833
105,Ajka,Veszprém,HU,17.5522,47.1006,27995
106,Akat Amnuai,Sakon Nakhon,TH,103.9859,17.5898,9013
107,Akhalkalaki,Samtskhe-Javakheti,GE,43.4861,41.4056,8295
108,Akhaltsikhe,Samtskhe-Javakheti,GE,42.9861,41.6389,14000
109,Akhisar,Manisa,TR,27.8333,38.9167,46167
110,Akhmeta,K’akheti,GE,45.2,42.0333,7105
111,Akita,Akita,JP,140.1025,39.7197,302984
112,Akjoujt,Inchiri,MR,-14.391,19.747,370
113,Aksaray,Aksaray,TR,34.0297,38.3686,70359
114,Aksay,Rostovskaya Oblast’,RU,39.8667,47.2667,45078
115,Aksu,Xinjiang,CN,80.25,41.1664,535657
116,Akure,Ondo,NG,5.195,7.25,847903
117,Akyazı,Sakarya,TR,30.6253,40.6833,9090
118,Akçaabat,Trabzon,TR,39.5833,41.0167,7600
119,Akçadağ,Malatya,TR,37.9742,38.3442,5995
120,Akçakoca,Düzce,TR,31.1297,41.0806,22416
121,Akşehir,Konya,TR,31.4164,38.3592,25269
122,Al Atārib,Ḩalab,SY,36.83,36.1389,10657
123,Al Bayḑā’,Al Bayḑā’,YE,45.574,13.979,37821
124,Al Bayḑā’,Al Jabal al Akhḑar,LY,21.755,32.7628,250000
125,Al Başrah,Al Başrah,IQ,47.81,30.515,1326564
126,Al Bāḩah,Al Bāḩah,SA,41.4677,20.0129,21983
127,Al Fallūjah,Al Anbār,IQ,43.7833,33.35,326471
128,Al Fayyūm,Al Fayyūm,EG,30.8333,29.3,315940
129,Al Fujayrah,Al Fujayrah,AE,56.3347,25.1308,93673
130,Al Fāw,Al Başrah,IQ,48.47,29.98,105080
131,Al Ghardaqah,Al Baḩr al Aḩmar,EG,33.8117,27.2578,160901
132,Al Ghayz̧ah,Al Mahrah,YE,52.1638,16.2394,27404
133,Al Jawf,Al Kufrah,LY,23.3,24.2167,24132
134,Al Karak,Al Karak,JO,35.7,31.1833,21678
135,Al Khārjah,Al Wādī al Jadīd,EG,30.55,25.44,49991
136,Al Kūfah,An Najaf,IQ,44.4,32.03,166100
137,Al Kūt,Wāsiţ,IQ,45.8304,32.4907,321521
138,Al Mafraq,Al Mafraq,JO,36.2333,32.2833,57118
139,Al Manşūrah,Ad Daqahlīyah,EG,31.3833,31.05,960423
140,Al Marj,Al Marj,LY,20.83,32.5005,169540
141,Al Mayādīn,Dayr az Zawr,SY,40.4533,35.0208,48922
142,Al Mazra‘ah,As Suwaydā’,SY,36.4833,32.7828,7547
143,Al Maḩwīt,Al Maḩwīt,YE,43.5453,15.4694,10593
144,Al Minyā,Al Minyā,EG,30.75,28.0833,236043
145,Al Mukallā,Ḩaḑramawt,YE,49.1333,14.5333,144137
146,Al Musayfirah,Dar‘ā,SY,36.3386,32.6322,10466
147,Al Musayyib,Bābil,IQ,44.29,32.7786,76454
148,Al Muzayrīb,Dar‘ā,SY,36.0266,32.7109,12640
149,Al Mālikīyah,Al Ḩasakah,SY,42.0822,37.1031,39000
150,Al Qaryatayn,Ḩimş,SY,37.2406,34.2294,37820
151,Al Qunayţirah,Al Qunayţirah,SY,35.8239,33.1256,37022
152,Al Quşayr,Ḩimş,SY,36.5797,34.5089,46772
153,Al Quţaylibīyah,Al Lādhiqīyah,SY,36.0153,35.2889,5566
154,Al Qāmishlī,Al Ḩasakah,SY,41.2167,37.05,184231
155,Al Wakrah,Al Wakrah,QA,51.61,25.18,87970
156,Al Ḩajar al Aswad,Rīf Dimashq,SY,36.3053,33.4581,101827
157,Al Ḩasakah,Al Ḩasakah,SY,40.75,36.4833,128100
158,Al Ḩayy,Wāsiţ,IQ,46.0433,32.1742,82900
159,Al Ḩillah,Bābil,IQ,44.4333,32.4833,541034
160,Al Ḩişn,Irbid,JO,35.88,32.487,35085
161,Al Ḩudaydah,Al Ḩudaydah,YE,42.9511,14.8022,548433
162,Al ‘Amādīyah,Dahūk,IQ,43.4878,37.0922,11000
163,Al ‘Amārah,Maysān,IQ,47.15,31.8333,511500
164,Al ‘Aqabah,Al ‘Aqabah,JO,35.0,29.5167,140000
165,Al ‘Arīsh,Shamāl Sīnā’,EG,33.8006,31.1249,178651
166,Alabel,Sarangani,PH,125.2868,6.1023,88294
167,Alagir,North Ossetia,RU,44.2106,43.0417,20043
168,Alajuela,Alajuela,CR,-84.2041,10.0311,48326
169,Alajärvi,Etelä-Pohjanmaa,FI,23.8167,63.0,10006
170,Alandroal,Évora,PT,-7.4,38.7,5843
171,Alanya,Antalya,TR,31.9997,36.5436,12436
172,Alaplı,Zonguldak,TR,31.3833,41.1833,12105
173,Alashankou,Xinjiang,CN,82.5731,45.1714,40000
174,Alavus,Etelä-Pohjanmaa,FI,23.6194,62.5861,12044
175,Alaçam,Samsun,TR,35.595,41.61,7833
176,Alaşehir,Manisa,TR,28.5167,38.35,16012
177,Alba Iulia,Alba,RO,23.5728,46.0764,63536
178,Albacete,Castille-La Mancha,ES,-1.8558,38.9956,172722
179,Albania,Caquetá,CO,-75.8783,1.3289,6394
180,Albany,New York,US,-73.7987,42.6664,586383
181,Albarradas,Oaxaca,MX,-96.2,17.0667,7965
182,Albergaria-a-Velha,Aveiro,PT,-8.4806,40.6936,25252
183,Albertville,Auvergne-Rhône-Alpes,FR,6.3925,45.6758,19214
184,Albi,Occitanie,FR,2.1464,43.9289,48993
185,Albina,Marowijne,SR,-54.05,5.5,5247
186,Alblasserdam,Zuid-Holland,NL,4.6667,51.8667,20069
187,Albufeira,Faro,PT,-8.2458,37.0897,22794
188,Albán,Cundinamarca,CO,-74.4383,4.8783,5956
189,Alcalá,Valle del Cauca,CO,-75.7825,4.6736,23195
190,Alcanena,Santarém,PT,-8.6667,39.4667,13868
191,Alcantara,Cebu,PH,123.4047,9.9715,16910
192,Alchevsk,Luhans’ka Oblast’,UA,38.7983,48.4672,105398
193,Alcobaça,Leiria,PT,-8.975,39.55,56693
194,Alcochete,Setúbal,PT,-8.9608,38.7553,17569
195,Alcácer do Sal,Setúbal,PT,-8.5133,38.3725,13046
196,Aldama,Chihuahua,MX,-105.9111,28.8386,18642
197,Aldama,Tamaulipas,MX,-98.0736,22.9194,13661
198,Aleg,Brakna,MR,-13.909,17.058,8388
199,Aleksandrów Kujawski,Kujawsko-Pomorskie,PL,18.7,52.875,12359
200,Alenquer,Lisboa,PT,-9.0167,39.05,43267
201,Alençon,Normandie,FR,0.0931,48.4306,25775
202,Aleppo,Ḩalab,SY,37.15,36.2,1916781
203,Alessandria,Piedmont,IT,8.62,44.9133,93980
204,Alexandria,Al Iskandarīyah,EG,29.9167,31.2,4870000
205,Alexandria,Teleorman,RO,25.3333,43.9686,45434
206,Alexandroúpoli,Anatolikí Makedonía kai Thráki,GR,25.8667,40.85,57812
207,Alexándreia,Kentrikí Makedonía,GR,22.4454,40.6283,14821
208,Alfândega da Fé,Bragança,PT,-6.9667,41.35,5104
209,Alga,Aqtöbe,KZ,57.335,49.9032,28267
210,Algeciras,Huila,CO,-75.3144,2.5219,24708
211,Algiers,Alger,DZ,3.0586,36.7764,3415811
212,Ali Sabieh,Ali Sabieh,DJ,42.7125,11.1558,37939
213,Aliağa,İzmir,TR,26.9728,38.8008,17578
214,Alibunar,Alibunar,RS,20.9658,45.0808,3431
215,Alicante,Valencia,ES,-0.4831,38.3453,337304
216,Alijó,Vila Real,PT,-7.4749,41.2764,11942
217,Aljezur,Faro,PT,-8.8,37.3178,5884
218,Aljustrel,Beja,PT,-8.1667,37.8833,9257
219,Alkmaar,Noord-Holland,NL,4.744,52.6289,107822
220,Allende,Coahuila de Zaragoza,MX,-100.8333,28.3333,21376
221,Almada,Setúbal,PT,-9.1583,38.6803,174030
222,Almaguer,Cauca,CO,-76.8561,1.9131,21374
223,Almaty,Almaty,KZ,76.9,43.25,1916822
224,Almeida,Guarda,PT,-6.9056,40.7259,7242
225,Almeirim,Santarém,PT,-8.6333,39.2167,23376
226,Almelo,Overijssel,NL,6.6667,52.3575,72459
227,Almere,Flevoland,NL,5.2256,52.3758,207904
228,Almería,Andalusia,ES,-2.4681,36.8403,200753
229,Almirante,Bocas del Toro,PA,-82.4,9.3,8114
230,Almodôvar,Beja,PT,-8.0603,37.5114,7449
231,Almolonga,Quetzaltenango,GT,-91.4944,14.8122,17186
232,Almoloya,Hidalgo,MX,-98.4,19.7,10638
233,Almoloya de Alquisiras,México,MX,-99.85,18.85,14196
234,Almyrós,Thessalía,GR,22.7606,39.1803,7955
235,Alor Setar,Kedah,MY,100.3667,6.1167,217000
236,Alotau,Milne Bay,PG,150.4333,-10.3167,11624
237,Alotenango,Sacatepéquez,GT,-90.8058,14.4878,17369
238,Alphen aan den Rijn,Zuid-Holland,NL,4.65,52.1333,110986
239,Alpiarça,Santarém,PT,-8.585,39.2593,7702
240,Alquízar,Artemisa,CU,-82.5828,22.8067,29616
241,Alta,Finnmark,NO,23.2714,69.9686,15342
242,Alta Gracia,Córdoba,AR,-64.4333,-31.6667,48140
243,Altagracia de Orituco,Guárico,VE,-66.38,9.8504,40052
244,Altamira,Tamaulipas,MX,-97.8694,22.3375,59536
245,Altamirano,Chiapas,MX,-92.0389,16.7361,9200
246,Altar,Sonora,MX,-111.8353,30.7136,8439
247,Altay,Govĭ-Altay,MN,96.2572,46.3728,15800
248,Altay,Xinjiang,CN,88.1166,47.8666,142000
249,Altdorf,Uri,CH,8.6394,46.8806,9401
250,Altenburg,Thuringia,DE,12.4333,50.985,32074
251,Altenkirchen,Rhineland-Palatinate,DE,7.6456,50.6872,6263
252,Altepexi,Puebla,MX,-97.3004,18.3676,21100
253,Altkirch,Grand Est,FR,7.2394,47.6231,5698
254,Alto Río Senguer,Chubut,AR,-70.8234,-45.0419,1570
255,Altos del Rosario,Bolívar,CO,-74.1636,8.7914,13669
256,Altstätten,Sankt Gallen,CH,9.5488,47.378,11730
257,Altötting,Bavaria,DE,12.6759,48.2264,10119
258,Alvaiázere,Leiria,PT,-8.3833,39.8333,7287
259,Alvarado,Tolima,CO,-74.9533,4.5672,8873
260,Alvarado,Veracruz,MX,-95.7572,18.7811,52927
261,Alytus,Alytaus Miestas,LT,24.0492,54.4014,49888
262,Alzey,Rhineland-Palatinate,DE,8.1161,49.7517,18535
263,Alès,Occitanie,FR,4.0817,44.1281,40802
264,Alīgūdarz,Lorestān,IR,49.6947,33.4006,78690
265,Alūksne,Alūksnes Novads,LV,27.0503,57.4239,6535
266,Am-Timan,Salamat,TD,20.2833,11.0333,38261
267,Amadora,Lisboa,PT,-9.2333,38.75,175136
268,Amagá,Antioquia,CO,-75.7028,6.0383,30376
269,Amahai,Maluku,ID,128.919,-3.3331,47653
270,Amalfi,Antioquia,CO,-75.0767,6.9092,22714
271,Amarante,Porto,PT,-8.0833,41.2667,56264
272,Amares,Braga,PT,-8.35,41.6333,18889
273,Amasra,Bartın,TR,32.3864,41.7494,6085
274,Amasya,Amasya,TR,35.8333,40.65,32900
275,Amatenango de la Frontera,Chiapas,MX,-92.1167,15.4333,30732
276,Amatenango del Valle,Chiapas,MX,-92.4333,16.5333,9913
277,Amatepec,México,MX,-100.15,18.65,27026
278,Amatitlán,Guatemala,GT,-90.6247,14.4741,125000
279,Amatitán,Jalisco,MX,-103.7167,20.8333,15344
280,Amatlán de los Reyes,Veracruz,MX,-96.9149,18.8457,9123
281,Amatán,Chiapas,MX,-92.8167,17.3667,19348
282,Ambalema,Tolima,CO,-74.7639,4.7817,7563
283,Ambato,Tungurahua,EC,-78.6197,-1.2417,165185
284,Ambatondrazaka,Toamasina,MG,48.4167,-17.8329,43134
285,Amberg,Bavaria,DE,11.8483,49.4444,41970
286,Ambert,Auvergne-Rhône-Alpes,FR,3.7417,45.5494,6634
287,Ambon,Maluku,ID,128.17,-3.705,372249
288,Ambrolauri,Rach’a-Lechkhumi da Kvemo Svaneti,GE,43.15,42.5194,2047
289,Amealco,Querétaro,MX,-100.1439,20.1881,56457
290,Ameca,Jalisco,MX,-104.0431,20.5486,36156
291,Amecameca de Juárez,México,MX,-98.7665,19.1238,31687
292,Amersfoort,Utrecht,NL,5.38,52.15,156286
293,Amiens,Hauts-de-France,FR,2.299,49.892,133891
294,Amioûn,Liban-Nord,LB,35.8097,34.2994,10000
295,Amlash,Gīlān,IR,50.1864,37.0975,15047
296,Amman,Al ‘Āşimah,JO,35.9333,31.95,4007526
297,Amnat Charoen,Amnat Charoen,TH,104.6223,15.8758,25858
298,Amstelveen,Noord-Holland,NL,4.8581,52.3019,91675
299,Amsterdam,Noord-Holland,NL,4.8833,52.3667,862965
300,Amstetten,Niederösterreich,AT,14.8667,48.1167,23656
301,Amuntai,Kalimantan Selatan,ID,115.2494,-2.4177,41554
302,An Nabk,Rīf Dimashq,SY,36.7344,34.025,52502
303,An Najaf,An Najaf,IQ,44.3396,32.029,724700
304,An Nāşirīyah,Dhī Qār,IQ,46.2575,31.0439,541600
305,Anaco,Anzoátegui,VE,-64.4667,9.4333,162704
306,Anadia,Aveiro,PT,-8.4333,40.4333,29150
307,Anadyr,Chukotskiy Avtonomnyy Okrug,RU,177.5167,64.7333,15604
308,Anamur,Mersin,TR,32.8261,36.0836,11246
309,Anapa,Krasnodarskiy Kray,RU,37.3167,44.8944,81447
310,Anapoima,Cundinamarca,CO,-74.5361,4.5503,14519
311,Ancona,Marche,IT,13.5167,43.6167,100924
312,Anda,Bohol,PH,124.576,9.744,17778
313,Anda,Heilongjiang,CN,125.3252,46.4078,520000
314,Andes,Antioquia,CO,-75.8803,5.6556,43269
315,Andijon,Andijon,UZ,72.35,40.7,441700
316,Andkhōy,Fāryāb,AF,65.1167,36.95,37887
317,Andong,Gyeongbuk,KR,128.725,36.5656,162180
318,Andorra la Vella,Andorra la Vella,AD,1.5,42.5,22615
319,Andria,Puglia,IT,16.3083,41.2317,99857
320,Andrijevica,Andrijevica,ME,19.7919,42.7339,1073
321,Andīmeshk,Khūzestān,IR,48.35,32.45,135116
322,Anenii Noi,Anenii Noi,MD,29.2308,46.8817,10872
323,Ang Thong,Ang Thong,TH,100.4574,14.5926,13277
324,Angeles City,Angeles,PH,120.5847,15.1472,462928
325,Angers,Pays de la Loire,FR,-0.5542,47.4736,154508
326,Angol,Araucanía,CL,-72.7086,-37.7988,48608
327,Angostura,Sinaloa,MX,-108.1622,25.3653,5086
328,Angoulême,Nouvelle-Aquitaine,FR,0.16,45.65,41711
329,Ankara,Ankara,TR,32.85,39.93,77168
330,Ankaran,Ankaran,SI,13.7379,45.5793,3224
331,Anlu,Hubei,CN,113.6783,31.2575,720000
332,Anna Paulowna,Noord-Holland,NL,4.8167,52.85,7380
333,Annaba,Annaba,DZ,7.7667,36.9,257359
334,Annaberg-Buchholz,Saxony,DE,13.0022,50.58,19769
335,Annapolis,Maryland,US,-76.5047,38.9706,39223
336,Annecy,Auvergne-Rhône-Alpes,FR,6.133,45.916,128199
337,Anolaima,Cundinamarca,CO,-74.4647,4.7633,12911
338,Anorí,Antioquia,CO,-75.1469,7.0736,16447
339,Anqing,Anhui,CN,117.0333,30.5,4723000
340,Ansbach,Bavaria,DE,10.5833,49.3,41847
341,Ansião,Leiria,PT,-8.4333,39.9167,13128
342,Ansongo,Gao,ML,0.5028,15.665,32709
343,Antalya,Antalya,TR,30.6956,36.9081,71833
344,Antananarivo,Antananarivo,MG,47.5214,-18.9386,2610000
345,Antigua Guatemala,Sacatepéquez,GT,-90.7337,14.5567,59091
346,Antipolo,Rizal,PH,121.1763,14.5842,887399
347,Antofagasta,Antofagasta,CL,-70.398,-23.6464,348517
348,Antony,Île-de-France,FR,2.2975,48.7539,62858
349,Antsirabe,Antananarivo,MG,47.0333,-19.8667,257163
350,Antsiranana,Antsiranana,MG,49.3115,-12.2765,82937
351,Antsohihy,Mahajanga,MG,47.9834,-14.8661,21290
352,Antwerp,Flanders,BE,4.3997,51.2211,529247
353,Anuradhapura,North Central,LK,80.4108,8.335,63208
354,Anykščiai,Anykščiai,LT,25.1072,55.5344,8491
355,Ao Luek,Krabi,TH,98.7211,8.378,5719
356,Aomori,Aomori,JP,140.7475,40.8222,425962
357,Aosta,Valle d’Aosta,IT,7.3206,45.7372,34082
358,Apan,Hidalgo,MX,-98.4333,19.7,39247
359,Apapa,Lagos,NG,3.3589,6.4489,217362
360,Apartadó,Antioquia,CO,-76.635,7.8847,121003
361,Apaseo el Alto,Guanajuato,MX,-100.6167,20.45,64443
362,Apeldoorn,Gelderland,NL,5.97,52.21,161156
363,Apia,Tuamasaga,WS,-171.8333,-13.8333,37708
364,Apizaco,Tlaxcala,MX,-98.1333,19.4167,81565
365,Apolda,Thuringia,DE,11.5139,51.0247,22012
366,Apostolove,Dnipropetrovs’ka Oblast’,UA,33.717,47.6595,13792
367,Appenzell,Appenzell Innerrhoden,CH,9.4086,47.3306,5750
368,Appingedam,Groningen,NL,6.8667,53.3167,11721
369,Apsheronsk,Krasnodarskiy Kray,RU,39.7406,44.4608,39762
370,Apt,Provence-Alpes-Côte d’Azur,FR,5.3964,43.8761,11011
371,Aqtaū,Mangghystaū,KZ,51.1575,43.6525,183350
372,Aqtöbe,Aqtöbe,KZ,57.2297,50.2836,387807
373,Aquitania,Boyacá,CO,-72.8836,5.5194,16087
374,Ar Ramthā,Irbid,JO,36.0069,32.5592,155693
375,Ar Ramādī,Al Anbār,IQ,43.2992,33.4258,874543
376,Ar Raqqah,Ar Raqqah,SY,39.01,35.95,299824
377,Ar Rastan,Ḩimş,SY,36.7333,34.9167,61176
378,Ar Rawḑah,Shabwah,YE,47.27,14.48,6649
379,Ar Ruţbah,Al Anbār,IQ,40.2833,33.0333,22370
380,Aracaju,Sergipe,BR,-37.05,-10.9167,632744
381,Aracataca,Magdalena,CO,-74.185,10.5911,40400
382,Arad,Arad,RO,21.3167,46.1667,159074
383,Aralık,Adıyaman,TR,44.5192,39.8728,6098
384,Aranyaprathet,Sa Kaeo,TH,102.5017,13.6928,16211
385,Arapgir,Malatya,TR,38.4953,39.0411,6120
386,Arar,Al Ḩudūd ash Shamālīyah,SA,41.0167,30.9833,27449
387,Aratoca,Santander,CO,-73.0175,6.6956,8269
388,Arauca,Arauca,CO,-70.7617,7.0903,96814
389,Arauquita,Arauca,CO,-71.4272,7.0261,41309
390,Araure,Portuguesa,VE,-69.2167,9.5667,188800
391,Aračinovo,Aračinovo,MK,21.5617,42.0264,7315
392,Arboletes,Antioquia,CO,-76.4272,8.8511,44560
393,Arbuzynka,Mykolayivs’ka Oblast’,UA,31.3131,47.9067,6266
394,Arcabuco,Boyacá,CO,-73.4375,5.7544,5240
395,Arcachon,Nouvelle-Aquitaine,FR,-1.1689,44.6586,11567
396,Arcos de Valdevez,Viana do Castelo,PT,-8.4167,41.85,22847
397,Ardabīl,Ardabīl,IR,48.3,38.25,529374
398,Ardahan,Ardahan,TR,42.7,41.1167,16251
399,Ardakān,Yazd,IR,54.0186,32.3094,75271
400,Ardestān,Eşfahān,IR,52.3725,33.3797,14698
401,Ardeşen,Rize,TR,40.9857,41.1914,5488
402,Areguá,Central,PY,-57.4169,-25.3,67487
403,Arendal,Aust-Agder,NO,8.7667,58.4667,45065
404,Arequipa,Arequipa,PE,-71.5369,-16.3988,1008290
405,Arezzo,Tuscany,IT,11.8781,43.4631,99419
406,Arganil,Coimbra,PT,-8.05,40.2167,12145
407,Argao,Cebu,PH,123.6,9.8833,78187
408,Argelia,Cauca,CO,-77.2492,2.2558,27670
409,Argentan,Normandie,FR,-0.0203,48.7444,13730
410,Argenteuil,Île-de-France,FR,2.25,48.95,110213
411,Argostóli,Ionía Nísia,GR,20.4883,38.1739,9748
412,Ariana,L’Ariana,TN,10.1956,36.8625,114486
413,Arica,Arica y Parinacota,CL,-70.3211,-18.4784,202131
414,Aridaía,Kentrikí Makedonía,GR,22.0583,40.975,6561
415,Arjona,Bolívar,CO,-75.3447,10.255,78070
416,Arkhangelsk,Arkhangel’skaya Oblast’,RU,40.5333,64.55,351488
417,Arles,Provence-Alpes-Côte d’Azur,FR,4.6278,43.6767,51031
418,Arlit,Agadez,NE,7.3833,18.7333,78651
419,Arlon,Wallonia,BE,5.8167,49.6836,29733
420,Armamar,Viseu,PT,-7.6833,41.1167,6297
421,Armanāz,Idlib,SY,36.5,36.0833,10296
422,Armavir,Armavir,AM,44.04,40.15,38635
423,Armenia,Quindío,CO,-75.6725,4.5389,301226
424,Arnhem,Gelderland,NL,5.9167,51.9833,148070
425,Arnstadt,Thuringia,DE,10.9464,50.8342,27304
426,Arouca,Aveiro,PT,-8.2449,40.9338,22359
427,Arraiolos,Évora,PT,-7.9843,38.7229,7363
428,Arras,Hauts-de-France,FR,2.78,50.292,41555
429,Arruda dos Vinhos,Lisboa,PT,-9.0667,38.9833,13391
430,Arsanjān,Fārs,IR,53.3083,29.9122,17642
431,Arsuz,Hatay,TR,35.8867,36.4128,79782
432,Artashat,Ararat,AM,44.5506,39.9539,21300
433,Arteaga,Coahuila de Zaragoza,MX,-100.8333,25.45,8446
434,Artemisa,Artemisa,CU,-82.7633,22.8136,59130
435,Artigas,Artigas,UY,-56.4704,-30.4028,40658
436,Artvin,Artvin,TR,41.8194,41.1822,8719
437,Arua,Arua,UG,30.91,3.03,250000
438,Arusha,Arusha,TZ,36.6833,-3.3667,416442
439,Arvayheer,Övörhangay,MN,102.775,46.2639,20000
440,Arāk,Markazī,IR,49.7,34.08,520944
441,As Safīrah,Ḩalab,SY,37.3725,36.0769,106460
442,As Salamīyah,Ḩamāh,SY,37.0531,35.0111,110683
443,As Salţ,Al Balqā’,JO,35.7272,32.0392,88900
444,As Samāwah,Al Muthanná,IQ,45.2833,31.3167,215000
445,As Sukhnah,Ḩimş,SY,38.8721,34.8868,16173
446,As Sulaymānīyah,As Sulaymānīyah,IQ,45.4333,35.55,676500
447,As Suqaylibīyah,Ḩamāh,SY,36.38,35.3697,17313
448,As Suwaydā’,As Suwaydā’,SY,36.5667,32.7,64730
449,Asadābād,Kunaṟ,AF,71.1528,34.8742,48400
450,Ascensión,Chihuahua,MX,-107.9964,31.0928,13456
451,Aschaffenburg,Bavaria,DE,9.1478,49.9757,70527
452,Ascoli Piceno,Marche,IT,13.5753,42.8547,48773
453,Ash Shaykh ‘Uthmān,‘Adan,YE,45.0279,12.8866,105248
454,Ash Shaţrah,Dhī Qār,IQ,46.1772,31.4175,161949
455,Ash Shiḩr,Ḩaḑramawt,YE,49.6069,14.7608,68313
456,Ashgabat,Ahal,TM,58.3833,37.95,19426
457,Ashkezar,Yazd,IR,54.2044,32.0,19123
458,Ashmyany,Hrodzyenskaya Voblasts’,BY,25.9375,54.425,16966
459,Ashtarak,Aragatsotn,AM,44.3617,40.2975,21600
460,Asipovichy,Mahilyowskaya Voblasts’,BY,28.65,53.3,29981
461,Asker,Oslo,NO,10.4392,59.8331,61523
462,Askim,Østfold,NO,11.1629,59.5832,14488
463,Askola,Uusimaa,FI,25.6,60.5278,5104
464,Asmara,Ma’ākel,ER,38.9167,15.3333,963000
465,Assab,Debubawī K’eyih Bahrī,ER,42.7411,13.0078,74405
466,Assen,Drenthe,NL,6.55,53.0,67580
467,Assomada,Santa Catarina,CV,-23.6654,15.0949,12026
468,Astara,Astara,AZ,48.875,38.44,16800
469,Asten,Noord-Brabant,NL,5.7472,51.4031,16710
470,Asti,Piedmont,IT,8.2069,44.9,76211
471,Astrakhan,Aqmola,KZ,69.795,51.5228,6313
472,Astrakhan,Astrakhanskaya Oblast’,RU,48.0167,46.3333,532504
473,Astravyets,Hrodzyenskaya Voblasts’,BY,25.9553,54.6136,14147
474,Asunción,Asunción,PY,-57.6333,-25.3,524190
475,Asunción Mita,Jutiapa,GT,-89.7167,14.3333,40391
476,Asunción Nochixtlán,Oaxaca,MX,-97.2233,17.4581,18525
477,Aswān,Aswān,EG,32.8997,24.0889,267913
478,Asyūţ,Asyūţ,EG,31.1714,27.1869,389307
479,Aszód,Pest,HU,19.4894,47.6514,6204
480,At Tall,Rīf Dimashq,SY,36.3106,33.6103,63554
481,At-Bashy,Naryn,KG,75.7968,41.1725,15601
482,Atakpamé,Plateaux,TG,1.12,7.53,80683
483,Atar,Adrar,MR,-13.05,20.5167,24021
484,Atarjea,Guanajuato,MX,-99.7183,21.2678,5610
485,Atbasar,Aqmola,KZ,68.3667,51.8,29733
486,Atengo,Jalisco,MX,-104.0833,20.2167,5475
487,Atescatempa,Jutiapa,GT,-89.7417,14.175,15820
488,Ath,Wallonia,BE,3.7769,50.6311,29164
489,Ath Thawrah,Ar Raqqah,SY,38.5464,35.8344,84000
490,Athens,Attikí,GR,23.7281,37.9842,664046
491,Ati,Batha,TD,18.3403,13.2139,20695
492,Atlanta,Georgia,US,-84.4224,33.7627,5449398
493,Atlautla,México,MX,-98.7167,19.0,27663
494,Atoyac de Álvarez,Guerrero,MX,-100.4333,17.2,20515
495,Attapu,Attapu,LA,106.8333,14.8,19200
496,Attard,Attard,MT,14.45,35.9,10930
497,Atushi,Xinjiang,CN,76.1753,39.7114,240368
498,Atyraū,Atyraū,KZ,51.8833,47.1167,290700
499,Auch,Occitanie,FR,0.5855,43.6465,22200
500,Auckland,Auckland,NZ,174.7833,-36.85,1346091
501,Augsburg,Bavaria,DE,10.8983,48.3717,295830
502,Augusta,Maine,US,-69.7319,44.3341,22116
503,Augustów,Podlaskie,PL,22.9667,53.85,30153
504,Aurich,Lower Saxony,DE,7.4836,53.4714,41991
505,Aurillac,Auvergne-Rhône-Alpes,FR,2.4406,44.9261,25531
506,Austin,Texas,US,-97.7522,30.3004,1687311
507,Autlán de Navarro,Jalisco,MX,-104.3667,19.7667,60572
508,Autun,Bourgogne-Franche-Comté,FR,4.2986,46.9511,13157
509,Auxerre,Bourgogne-Franche-Comté,FR,3.5672,47.7986,34764
510,Avallon,Bourgogne-Franche-Comté,FR,3.9083,47.49,6513
511,Avanos,Nevşehir,TR,34.8467,38.715,5675
512,Aveiro,Aveiro,PT,-8.6553,40.6389,78450
513,Avellaneda,Buenos Aires,AR,-58.3678,-34.6625,24313
514,Avellino,Campania,IT,14.7897,40.9153,53908
515,Avignon,Provence-Alpes-Côte d’Azur,FR,4.8075,43.95,91729
516,Avranches,Normandie,FR,-1.3569,48.6844,10246
517,Aweil,Northern Bahr el Ghazal,SS,27.4,8.7666,46705
518,Awka,Anambra,NG,7.0667,6.2,301657
519,Axapusco,México,MX,-98.7972,19.7194,21915
520,Ayacucho,Ayacucho,PE,-74.2244,-13.1631,180766
521,Ayacucho,Buenos Aires,AR,-58.4882,-37.1525,17364
522,Ayancık,Sinop,TR,34.5833,41.95,5320
523,Ayapel,Córdoba,CO,-75.145,8.3125,47247
524,Aybastı,Ordu,TR,37.3992,40.6867,7450
525,Aydın,Aydın,TR,27.8453,37.8481,191037
526,Aydıncık,Mersin,TR,33.35,36.1667,7040
527,Ayotoxco de Guerrero,Puebla,MX,-97.4,20.1,8558
528,Ayutla de los Libres,Guerrero,MX,-99.2167,16.9,15370
529,Ayvacık,Samsun,TR,36.6319,41.0036,5375
530,Ayvalık,Balıkesir,TR,26.7,39.3167,16283
531,Az Zabadānī,Rīf Dimashq,SY,36.1003,33.7247,26285
532,Az Zaqāzīq,Ash Sharqīyah,EG,31.5167,30.5833,285097
533,Az Zarqā’,Az Zarqā’,JO,36.1,32.0833,481300
534,Az Zubayr,Al Başrah,IQ,47.7081,30.3892,370000
535,Az Zāwīyah,Az Zāwiyah,LY,12.72,32.7604,200000
536,Azambuja,Lisboa,PT,-8.8667,39.0667,21814
537,Azare,Bauchi,NG,10.19,11.6804,105687
538,Aznā,Lorestān,IR,49.455,33.4539,47489
539,Azogues,Cañar,EC,-78.8333,-2.7333,33848
540,Azov,Rostovskaya Oblast’,RU,39.4167,47.1,80721
541,Azua,Valdesia,DO,-70.74,18.46,91345
542,Azul,Buenos Aires,AR,-59.85,-36.7833,55728
543,Aígina,Attikí,GR,23.4275,37.7467,6867
544,Aígio,Dytikí Elláda,GR,22.0833,38.25,20422
545,Añatuya,Santiago del Estero,AR,-62.8333,-28.4667,14133
546,Ağcabədi,Ağcabədi,AZ,47.4502,40.0489,39200
547,Ağdam,Ağdam,AZ,46.9167,39.9833,3770
548,Ağdaş,Ağdaş,AZ,47.4833,40.65,29600
549,Ağrı,Ağrı,TR,43.0544,39.7225,24168
550,Ağstafa,Ağstafa,AZ,45.45,41.1167,20200
551,Ağsu,Ağsu,AZ,48.3928,40.5708,20200
552,Aībak,Samangān,AF,68.0394,36.2534,4938
553,Aş Şanamayn,Dar‘ā,SY,36.1842,33.0711,26268
554,Aşkale,Erzurum,TR,40.6947,39.9211,6943
555,Aţ Ţafīlah,Aţ Ţafīlah,JO,35.6044,30.8375,23512
556,Aţ Ţūr,Janūb Sīnā’,EG,33.6167,28.2333,12733
557,Baabda,Mont-Liban,LB,35.5333,33.8333,9000
558,Baalbek,Baalbek-Hermel,LB,36.2086,34.0061,24000
559,Baarle-Nassau,Noord-Brabant,NL,4.9333,51.45,6847
560,Baarn,Utrecht,NL,5.2861,52.2125,24767
561,Babaeski,Kırklareli,TR,27.0931,41.4325,13879
562,Babahoyo,Los Ríos,EC,-79.5167,-1.8167,90191
563,Babati,Manyara,TZ,35.7475,-4.2117,30975
564,Babruysk,Mahilyowskaya Voblasts’,BY,29.2333,53.15,212200
565,Babək,Babək,AZ,45.4114,39.1111,5600
566,Baclayon,Bohol,PH,123.9135,9.6227,22461
567,Bacolod,Bacolod,PH,122.9509,10.6765,600783
568,Bacău,Bacău,RO,26.9167,46.5833,144307
569,Bad Dürkheim,Rhineland-Palatinate,DE,8.1724,49.4618,18476
570,Bad Ems,Rhineland-Palatinate,DE,7.7106,50.3381,9681
571,Bad Fallingbostel,Lower Saxony,DE,9.6967,52.8675,11852
572,Bad Hersfeld,Hesse,DE,9.7067,50.8683,29800
573,Bad Homburg,Hesse,DE,8.6105,50.2292,54248
574,Bad Kissingen,Bavaria,DE,10.0667,50.2,22444
575,Bad Kreuznach,Rhineland-Palatinate,DE,7.8669,49.8469,50948
576,Bad Neuenahr-Ahrweiler,Rhineland-Palatinate,DE,7.1133,50.5447,28251
577,Bad Neustadt,Bavaria,DE,10.2161,50.3219,15411
578,Bad Oldesloe,Schleswig-Holstein,DE,10.3742,53.8117,24744
579,Bad Reichenhall,Bavaria,DE,12.8769,47.7247,18278
580,Bad Salzungen,Thuringia,DE,10.2333,50.8117,20244
581,Bad Schwalbach,Hesse,DE,8.0694,50.1401,11187
582,Bad Segeberg,Schleswig-Holstein,DE,10.3089,53.9356,17267
583,Bad Tölz,Bavaria,DE,11.5567,47.7603,18802
584,Bad Zurzach,Aargau,CH,8.2933,47.5877,8476
585,Badajoz,Extremadura,ES,-6.9753,38.8803,150610
586,Baden-Baden,Baden-Württemberg,DE,8.2408,48.7619,55449
587,Badian,Cebu,PH,123.3959,9.8694,43735
588,Badulla,Uva,LK,81.0564,6.9847,42923
589,Bafatá,Bafatá,GW,-14.6575,12.1719,22501
590,Bafoulabé,Kayes,ML,-10.8322,13.8064,26823
591,Bafoussam,Ouest,CM,10.4167,5.4667,290768
592,Bafra,Samsun,TR,35.9069,41.5682,97452
593,Baghdad,Baghdād,IQ,44.4167,33.35,6107000
594,Baghlān,Baghlān,AF,68.7,36.1328,39228
595,Bagnères-de-Bigorre,Occitanie,FR,0.1497,43.0642,7103
596,Bago,Bago,MM,96.4981,17.3433,284179
597,Bagrationovsk,Kaliningradskaya Oblast’,RU,20.6333,54.3833,6482
598,Baguio City,Baguio,PH,120.5956,16.4152,366358
599,Bahawalnagar,Punjab,PK,73.2536,29.9944,141935
600,Bahawalpur,Punjab,PK,71.6722,29.3956,762111
601,Bahir Dar,Āmara,ET,37.39,11.585,243300
602,Bahçe,Osmaniye,TR,36.5825,37.2039,12917
603,Bahía Blanca,Buenos Aires,AR,-62.2667,-38.7167,299101
604,Bahía Honda,Artemisa,CU,-83.1639,22.9064,43483
605,Bahār,Hamadān,IR,48.4414,34.9069,673405
606,Bahşılı,Kırıkkale,TR,33.4716,39.8136,7907
607,Baia Mare,Maramureş,RO,23.5819,47.6597,123738
608,Baicheng,Guangxi,CN,106.6194,23.901,3669400
609,Baicheng,Jilin,CN,122.832,45.6148,2032356
610,Baicheng,Xinjiang,CN,81.8715,41.7957,49207
611,Baidoa,Bay,SO,43.65,3.1167,129839
612,Baiquan,Heilongjiang,CN,126.0819,47.6018,70472
613,Baishan,Jilin,CN,126.4179,41.9377,1296127
614,Baiyin,Gansu,CN,104.1766,36.5448,1708751
615,Baião,Porto,PT,-8.0333,41.1667,20522
616,Baja,Bács-Kiskun,HU,18.9536,46.1833,34788
617,Bajestān,Khorāsān-e Raẕavī,IR,58.1844,34.5164,11741
618,Bajina Bašta,Bajina Bašta,RS,19.5597,43.9731,26022
619,Bakhchysarai,"Krym, Avtonomna Respublika",UA,33.8608,44.7528,27351
620,Bakhmut,Donets’ka Oblast’,UA,38.0067,48.6044,75798
621,Baku,Bakı,AZ,49.8352,40.3667,2181800
622,Balad,Şalāḩ ad Dīn,IQ,44.1456,34.0147,80000
623,Balakən,Balakən,AZ,46.4165,41.7186,8134
624,Balancán,Tabasco,MX,-91.53,17.8,11895
625,Balanga,Bataan,PH,120.5333,14.6833,104173
626,Balassagyarmat,Nógrád,HU,19.2937,48.0712,14262
627,Balatonalmádi,Veszprém,HU,18.0219,47.0292,8640
628,Balatonfüred,Veszprém,HU,17.8833,46.95,12923
629,Balboa,Cauca,CO,-77.2164,2.0406,26384
630,Balcarce,Buenos Aires,AR,-58.2556,-37.8464,38823
631,Balchik,Dobrich,BG,28.1662,43.4102,12421
632,Baler,Aurora,PH,121.5625,15.7583,43785
633,Balingen,Baden-Württemberg,DE,8.8506,48.2731,34505
634,Balkanabat,Balkan,TM,54.365,39.5119,89785
635,Balkh,Balkh,AF,66.8989,36.7581,77000
636,Balmazújváros,Hajdú-Bihar,HU,21.35,47.6167,17109
637,Balsthal,Solothurn,CH,7.6944,47.3164,6117
638,Balta,Odes’ka Oblast’,UA,29.6225,47.9361,19353
639,Baltiysk,Kaliningradskaya Oblast’,RU,19.9167,54.65,33317
640,Balvi,Balvu Novads,LV,27.2667,57.1292,5840
641,Balzan,Balzan,MT,14.4533,35.8975,3958
642,Balzers,Balzers,LI,9.5,47.0667,4628
643,Balıkesir,Balıkesir,TR,27.8842,39.6511,69341
644,Bam,Kermān,IR,58.3583,29.1083,127396
645,Bama,Borno,NG,13.69,11.5204,118121
646,Bamako,Bamako,ML,-7.9922,12.6458,2009109
647,Bambari,Ouaka,CF,20.6833,5.7667,41356
648,Bamberg,Bavaria,DE,10.8917,49.8917,77592
649,Bamenda,North-West,CM,10.1667,5.9333,269530
650,Bamiantong,Heilongjiang,CN,130.5212,44.9164,330000
651,Bamnet Narong,Chaiyaphum,TH,101.681,15.5034,7147
652,Ban Bueng,Chon Buri,TH,101.1114,13.314,19346
653,Ban Chang,Rayong,TH,101.0669,12.7209,27668
654,Ban Dung,Udon Thani,TH,103.2623,17.704,15913
655,Ban Haet,Khon Kaen,TH,102.7492,16.2,6722
656,Ban Houayxay,Bokèo,LA,100.4167,20.2833,17687
657,Ban Laem,Phetchaburi,TH,99.9767,13.2168,12541
658,Ban Na San,Surat Thani,TH,99.3635,8.7997,19801
659,Ban Phai,Khon Kaen,TH,102.7362,16.073,28913
660,Ban Phue,Udon Thani,TH,102.4756,17.6874,7740
661,Ban Pong,Ratchaburi,TH,99.883,13.8174,17298
662,Ban Tak,Tak,TH,99.0742,17.05,6568
663,Banamba,Koulikoro,ML,-7.45,13.55,30591
664,Banaybanay,Davao Oriental,PH,126.0126,6.9699,44451
665,Banda Aceh,Aceh,ID,95.3175,5.55,235305
666,Bandar Lampung,Lampung,ID,105.2625,-5.4294,1166761
667,Bandar Seri Begawan,Brunei and Muara,BN,114.9167,4.9167,50000
668,Bandar ‘Abbās,Hormozgān,IR,56.25,27.2,526648
669,Bandar-e Anzalī,Gīlān,IR,49.4667,37.4667,110643
670,Bandar-e Būshehr,Būshehr,IR,50.8333,28.9667,195222
671,Bandar-e Genāveh,Būshehr,IR,50.5167,29.5833,64110
672,Bandar-e Māhshahr,Khūzestān,IR,49.1981,30.5589,162797
673,Bandundu,Kwilu,CD,17.38,-3.31,118211
674,Bandung,Jawa Barat,ID,107.5667,-6.95,2875673
675,Bandırma,Balıkesir,TR,27.9725,40.3542,33116
676,Banes,Holguín,CU,-75.7117,20.9697,34452
677,Banfora,Cascades,BF,-4.7589,10.6308,117200
678,Bang Ban,Phra Nakhon Si Ayutthaya,TH,100.4758,14.4247,11092
679,Bang Bua Thong,Nonthaburi,TH,100.4263,13.9099,50141
680,Bang Khla,Chachoengsao,TH,101.2105,13.7268,9311
681,Bang Kruai,Nonthaburi,TH,100.4755,13.8042,42390
682,Bang Len,Nakhon Pathom,TH,100.1719,14.0219,8429
683,Bang Mun Nak,Phichit,TH,100.3792,16.0278,8448
684,Bang Pa-in,Phra Nakhon Si Ayutthaya,TH,100.5813,14.22,7380
685,Bang Phae,Ratchaburi,TH,99.9068,13.6983,16130
686,Bang Racham,Sing Buri,TH,100.3235,14.8864,13937
687,Bang Sai,Phra Nakhon Si Ayutthaya,TH,100.3037,14.3347,5277
688,Bang Sao Thong,Samut Prakan,TH,100.7957,13.5812,23630
689,Bangalore,Karnātaka,IN,77.5913,12.9791,13999000
690,Bangar,Temburong,BN,115.0739,4.7086,626
691,Bangassou,Mbomou,CF,22.819,4.737,31453
692,Bangkok,Krung Thep Maha Nakhon,TH,100.5167,13.75,17573000
693,Bangued,Abra,PH,120.6179,17.5965,50382
694,Bangui,Bangui,CF,18.5628,4.3732,889231
695,Banhā,Al Qalyūbīyah,EG,31.1797,30.4628,157701
696,Banja Luka,"Srpska, Republika",BA,17.1833,44.7667,199191
697,Banjar,Jawa Barat,ID,108.5333,-7.3667,182819
698,Banjarmasin,Kalimantan Selatan,ID,114.5921,-3.319,692793
699,Banjul,Banjul,GM,-16.5775,13.4531,31356
700,Bannu,Khyber Pakhtunkhwa,PK,70.6056,32.9889,62191
701,Banská Bystrica,Banskobystrický,SK,19.1453,48.7353,78327
702,Banská Štiavnica,Banskobystrický,SK,18.8931,48.4586,10097
703,Banyuwangi,Jawa Timur,ID,114.3696,-8.195,172424
704,Baní,Valdesia,DO,-70.33,18.29,145595
705,Banī Suwayf,Banī Suwayf,EG,31.0833,29.0667,193048
706,Bar,Bar,ME,19.1,42.1,13719
707,Bar,Vinnyts’ka Oblast’,UA,27.6831,49.0781,16136
708,Bar-le-Duc,Grand Est,FR,5.1672,48.7717,14733
709,Baracoa,Guantánamo,CU,-74.4956,20.3444,79797
710,Baradero,Buenos Aires,AR,-59.5167,-33.8,28537
711,Barahona,Enriquillo,DO,-71.0996,18.2079,83619
712,Barakī Barak,Lōgar,AF,68.9667,33.9667,22305
713,Baranavichy,Brestskaya Voblasts’,BY,25.9833,53.1167,174183
714,Baranoa,Atlántico,CO,-74.9194,10.7956,50261
715,Barbosa,Antioquia,CO,-75.3306,6.4375,53167
716,Barbosa,Santander,CO,-73.6147,5.9331,29581
717,Barcelona,Anzoátegui,VE,-64.6833,10.1333,448016
718,Barcelona,Catalonia,ES,2.1769,41.3825,4735000
719,Barcelos,Braga,PT,-8.6167,41.5333,120391
720,Barclayville,Grand Kru,LR,-8.1667,4.8,2733
721,Barcs,Somogy,HU,17.46,45.96,10501
722,Bardaskan,Khorāsān-e Raẕavī,IR,57.9722,35.2631,28233
723,Bardejov,Prešovský,SK,21.2758,49.295,32587
724,Barendrecht,Zuid-Holland,NL,4.5333,51.85,48673
725,Bari,Puglia,IT,16.8667,41.1253,323370
726,Barinas,Barinas,VE,-70.2075,8.6226,284289
727,Barishal,Barisāl,BD,90.3667,22.7,230000
728,Barletta,Puglia,IT,16.2833,41.3167,94477
729,Barnaul,Altayskiy Kray,RU,83.7872,53.3567,633301
730,Barneveld,Gelderland,NL,5.5833,52.1333,57971
731,Barobo,Surigao del Sur,PH,126.2,8.55,53146
732,Barquisimeto,Lara,VE,-69.3467,10.0678,1059092
733,Barrancabermeja,Santander,CO,-73.8472,7.0675,210729
734,Barranquilla,Atlántico,CO,-74.7964,10.9639,1274250
735,Barreiro,Setúbal,PT,-9.0733,38.6609,78764
736,Bartica,Cuyuni-Mazaruni,GY,-58.6167,6.4,8532
737,Bartolomé Masó,Granma,CU,-76.9428,20.1686,56460
738,Bartoszyce,Warmińsko-Mazurskie,PL,20.8082,54.2535,22984
739,Bartın,Bartın,TR,32.3375,41.6344,35992
740,Baruta,Miranda,VE,-66.8754,10.4335,240755
741,Baruun-Urt,Sühbaatar,MN,113.2786,46.6829,14297
742,Basarabeasca,Basarabeasca,MD,28.9667,46.3333,8471
743,Bascharage,Capellen,LU,5.9167,49.5667,5715
744,Basco,Batanes,PH,121.9667,20.45,9517
745,Basel,Basel-Stadt,CH,7.5906,47.5606,177827
746,Baskil,Elazığ,TR,38.8236,38.5674,5002
747,Basse Santa Su,Upper River,GM,-14.223,13.31,14380
748,Basseterre,Saint George Basseterre,KN,-62.7342,17.2983,13220
749,Bastak,Hormozgān,IR,54.3667,27.1992,9959
750,Bastogne,Wallonia,BE,5.72,50.0042,15894
751,Basuo,Hainan,CN,108.6391,19.102,167636
752,Bata,Litoral,GQ,9.77,1.865,250770
753,Batabanó,Mayabeque,CU,-82.2833,22.7167,25664
754,Batalha,Leiria,PT,-8.8167,39.65,15805
755,Batangas,Batangas,PH,121.05,13.75,351437
756,Batken,Batken,KG,70.8194,40.0625,12134
757,Batman,Batman,TR,41.1333,37.8833,26730
758,Batna,Batna,DZ,6.1667,35.55,290645
759,Baton Rouge,Louisiana,US,-91.131,30.4418,570308
760,Battalgazi,Malatya,TR,38.3656,38.4228,14994
761,Battambang,Battambang,KH,103.1983,13.1028,130000
762,Batumi,Ajaria,GE,41.6417,41.6458,154600
763,Baucau,Baucau,TL,126.45,-8.4667,14961
764,Bauchi,Bauchi,NG,9.8442,10.3158,693700
765,Bauska,Bauskas Novads,LV,24.1875,56.4067,9840
766,Bauta,Artemisa,CU,-82.5492,22.9919,23557
767,Bautzen,Saxony,DE,14.4239,51.1814,37966
768,Bayamo,Granma,CU,-76.6428,20.3817,235107
769,Bayan Hot,Inner Mongolia,CN,105.7001,38.8556,94445
770,Bayanhongor,Bayanhongor,MN,100.7181,46.1944,26252
771,Bayburt,Bayburt,TR,40.226,40.2546,23690
772,Bayeux,Normandie,FR,-0.7039,49.2786,13017
773,Bayjī,Şalāḩ ad Dīn,IQ,43.4931,34.9292,60000
774,Bayombong,Nueva Vizcaya,PH,121.15,16.4833,67714
775,Bayonne,Nouvelle-Aquitaine,FR,-1.48,43.49,51411
776,Bayreuth,Bavaria,DE,11.5783,49.9481,74657
777,Bayt al Faqīh,Al Ḩudaydah,YE,43.3167,14.5167,41652
778,Bayındır,İzmir,TR,27.6481,38.2192,11273
779,Bazhou,Sichuan,CN,106.7559,31.8576,3283148
780,Bač,Bač,RS,19.2353,45.3886,6087
781,Bačka Palanka,Bačka Palanka,RS,19.3886,45.2506,29449
782,Bačka Topola,Bačka Topola,RS,19.635,45.8089,16171
783,Bački Petrovac,Bački Petrovac,RS,19.5883,45.3564,6155
784,Başmakçı,Afyonkarahisar,TR,30.0101,37.8973,5034
785,Ba‘qūbah,Diyālá,IQ,44.6436,33.7447,467900
786,Beaune,Bourgogne-Franche-Comté,FR,4.8397,47.025,20711
787,Beauvais,Hauts-de-France,FR,2.0952,49.4303,56605
788,Bedekovčina,Krapinsko-Zagorska Županija,HR,16.0,46.0333,8079
789,Bedum,Groningen,NL,6.6,53.3,10475
790,Beek,Limburg,NL,5.7961,50.9394,15929
791,Beek en Donk,Noord-Brabant,NL,5.6208,51.5161,22333
792,Beersheba,Southern,IL,34.7978,31.2589,209000
793,Beeskow,Brandenburg,DE,14.25,52.1667,8070
794,Behbahān,Khūzestān,IR,50.2417,30.5958,122604
795,Beichengqu,Inner Mongolia,CN,113.1565,40.4348,245608
796,Beidao,Gansu,CN,105.918,34.602,1225000
797,Beihai,Guangxi,CN,109.1,21.4667,1680000
798,Beijing,Beijing,CN,116.4075,39.904,19437000
799,Beilen,Drenthe,NL,6.5111,52.8567,14089
800,Beira,Sofala,MZ,34.85,-19.8333,436240
801,Beirut,Beyrouth,LB,35.5131,33.8869,361366
802,Beja,Beja,PT,-7.8653,38.0156,35854
803,Bejaïa,Bejaïa,DZ,5.0642,36.7511,176139
804,Bela Crkva,Bela Crkva,RS,21.4172,44.8975,10675
805,Belalcázar,Cauca,CO,-75.9717,2.6469,36628
806,Belaya Kalitva,Rostovskaya Oblast’,RU,40.7833,48.1667,40275
807,Beledweyne,Hiiraan,SO,45.204,4.736,62945
808,Belen,Hatay,TR,36.1917,36.4917,15629
809,Belene,Pleven,BG,25.1254,43.644,7227
810,Belfort,Bourgogne-Franche-Comté,FR,6.85,47.64,46954
811,Belgorod,Belgorodskaya Oblast’,RU,36.6,50.6,391135
812,Belgrade,Beograd,RS,20.4667,44.8167,1378682
813,Belize City,Belize,BZ,-88.1886,17.4986,57169
814,Belišće,Osječko-Baranjska Županija,HR,18.4069,45.6825,6518
815,Bell Ville,Córdoba,AR,-62.6833,-32.6333,33835
816,Bella Vista,Chiapas,MX,-92.2167,15.5833,20142
817,Belley,Auvergne-Rhône-Alpes,FR,5.6881,45.7592,9122
818,Bello,Antioquia,CO,-75.5581,6.3319,371591
819,Belluno,Veneto,IT,12.2156,46.1408,35710
820,Belmonte,Castelo Branco,PT,-7.35,40.3667,6859
821,Belmopan,Cayo,BZ,-88.7675,17.25,17222
822,Belo Horizonte,Minas Gerais,BR,-43.9419,-19.9281,5159000
823,Belorechensk,Krasnodarskiy Kray,RU,39.8667,44.7667,52082
824,Beloslav,Varna,BG,27.7067,43.1937,7689
825,Belovodskoe,Chüy,KG,74.1167,42.8333,21275
826,Beltinci,Beltinci,SI,16.2328,46.606,2430
827,Belém,Pará,BR,-48.5039,-1.4558,1499641
828,Belén,Catamarca,AR,-67.0333,-27.6496,11359
829,Belén de los Andaquíes,Caquetá,CO,-75.8727,1.4164,11081
830,Belčišta,Debarca,MK,20.8303,41.3028,437
831,Ben Arous,Ben Arous,TN,10.2189,36.7531,88322
832,Benavente,Santarém,PT,-8.8167,38.9833,29019
833,Bender,Bender,MD,29.4833,46.8333,91882
834,Benemérito,Chiapas,MX,-90.6531,16.5172,20193
835,Benevento,Campania,IT,14.7833,41.1333,59789
836,Benghazi,Banghāzī,LY,20.0667,32.1167,631555
837,Bengkulu,Bengkulu,ID,102.2592,-3.7956,360495
838,Benguela,Benguela,AO,13.4167,-12.55,561775
839,Beni Abbès,Béchar,DZ,-2.1,30.08,10885
840,Benin City,Edo,NG,5.6145,6.3176,1147188
841,Benito Juárez,Buenos Aires,AR,-59.8,-37.6833,10609
842,Benito Juárez,Veracruz,MX,-98.2,20.8833,17618
843,Bensonville,Montserrado,LR,-10.6097,6.4456,4089
844,Bentiu,Unity,SS,29.8,9.25,7781
845,Beočin,Beočin,RS,19.7203,45.1922,8058
846,Berane,Berane,ME,19.8694,42.8473,11776
847,Berat,Berat,AL,19.9497,40.7049,36496
848,Berazategui,Buenos Aires,AR,-58.2133,-34.7679,180523
849,Berbérati,Mambéré-Kadéï,CF,15.7833,4.2667,76918
850,Berdiansk,Zaporiz’ka Oblast’,UA,36.7845,46.7598,114205
851,Berdychiv,Zhytomyrs’ka Oblast’,UA,28.6,49.8919,76229
852,Berehove,Zakarpats’ka Oblast’,UA,22.6375,48.2025,23732
853,Berettyóújfalu,Hajdú-Bihar,HU,21.55,47.2167,14690
854,Berezhany,Ternopil’s’ka Oblast’,UA,24.9436,49.4464,17316
855,Berezivka,Odes’ka Oblast’,UA,30.9125,47.2039,9845
856,Bereznehuvate,Mykolayivs’ka Oblast’,UA,32.8478,47.3114,7552
857,Bergama,İzmir,TR,27.1783,39.1228,24121
858,Bergambacht,Zuid-Holland,NL,4.756,51.9314,9801
859,Bergamo,Lombardy,IT,9.67,45.695,120923
860,Bergeijk,Noord-Brabant,NL,5.3592,51.3203,18491
861,Bergen,Hordaland,NO,5.3233,60.3925,257087
862,Bergen,Limburg,NL,6.0336,51.5992,13140
863,Bergen op Zoom,Noord-Brabant,NL,4.3,51.5,66811
864,Bergerac,Nouvelle-Aquitaine,FR,0.48,44.85,26823
865,Bergheim,North Rhine-Westphalia,DE,6.65,50.9667,61612
866,Bergisch Gladbach,North Rhine-Westphalia,DE,7.1367,50.9917,111966
867,Berkovitsa,Montana,BG,23.1251,43.2371,12821
868,Berlin,Berlin,DE,13.3833,52.5167,3664088
869,Bern,Bern,CH,7.4474,46.948,133798
870,Bernay,Normandie,FR,0.5983,49.0886,9951
871,Bernburg,Saxony-Anhalt,DE,11.7333,51.8,32674
872,Berovo,Berovo,MK,22.8564,41.7078,3619
873,Berriozábal,Chiapas,MX,-93.2716,16.7985,51722
874,Bershad,Vinnyts’ka Oblast’,UA,29.5325,48.3728,12795
875,Bertoua,Est,CM,13.6833,4.5833,88462
876,Beryslav,Khersons’ka Oblast’,UA,33.4167,46.8333,12123
877,Besançon,Bourgogne-Franche-Comté,FR,6.02,47.24,117912
878,Best,Noord-Brabant,NL,5.3922,51.5108,29821
879,Betong,Yala,TH,101.0725,5.7731,26640
880,Betulia,Antioquia,CO,-75.9839,6.1122,17317
881,Betulia,Santander,CO,-73.2836,6.9,5110
882,Beuningen,Gelderland,NL,5.7667,51.8667,25882
883,Beverwijk,Noord-Holland,NL,4.6572,52.4864,41176
884,Beydağ,Kayseri,TR,28.2089,38.0869,5521
885,Beykoz,İstanbul,TR,29.1056,41.125,51689
886,Beyla,N’Zérékoré,GN,-8.657,8.687,13204
887,Beyləqan,Beyləqan,AZ,47.6156,39.7692,12263
888,Beypazarı,Ankara,TR,31.9211,40.1703,9860
889,Beyşehir,Konya,TR,31.7306,37.6867,7456
890,Bełchatów,Łódzkie,PL,19.3667,51.3667,59025
891,Beşikdüzü,Trabzon,TR,39.2329,41.052,11641
892,Beşiri,Batman,TR,41.29,37.92,5219
893,Bhakkar,Punjab,PK,71.0667,31.6333,88472
894,Bhisho,Eastern Cape,ZA,27.4381,-32.8494,160997
895,Bhopāl,Madhya Pradesh,IN,77.4167,23.25,1798218
896,Bhubaneshwar,Odisha,IN,85.8281,20.2644,837737
897,Biak,Papua,ID,136.08,-1.18,103610
898,Biała Podlaska,Lubelskie,PL,23.1167,52.0333,57498
899,Białogard,Zachodniopomorskie,PL,15.9875,54.007,24146
900,Białystok,Podlaskie,PL,23.1667,53.1167,297554
901,Biberach,Baden-Württemberg,DE,9.7886,48.0981,33510
902,Bicske,Fejér,HU,18.6363,47.4907,11969
903,Bida,Niger,NG,6.01,9.0804,173849
904,Bielefeld,North Rhine-Westphalia,DE,8.5333,52.0167,333509
905,Biella,Piedmont,IT,8.0533,45.5664,44324
906,Bielsk Podlaski,Podlaskie,PL,23.1902,52.7641,30322
907,Bielsko-Biała,Śląskie,PL,19.0444,49.8225,172781
908,Biga,Çanakkale,TR,27.2422,40.2281,12063
909,Bihać,"Bosnia and Herzegovina, Federation of",BA,15.8667,44.8167,43007
910,Bijeljina,"Srpska, Republika",BA,19.2167,44.75,114663
911,Bijelo Polje,Bijelo Polje,ME,19.7456,43.0292,15883
912,Bila Tserkva,Kyyivs’ka Oblast’,UA,30.1167,49.7956,208944
913,Bilbao,Basque Country,ES,-2.9236,43.2569,346405
914,Bilecik,Bilecik,TR,29.9792,40.1431,9722
915,Bilhorod-Dnistrovskyi,Odes’ka Oblast’,UA,30.3333,46.1833,57210
916,Bilmak,Zaporiz’ka Oblast’,UA,36.65,47.3589,6802
917,Bilohirsk,"Krym, Avtonomna Respublika",UA,34.6022,45.0544,16428
918,Bilovodsk,Luhans’ka Oblast’,UA,39.5756,49.1992,12000
919,Bilozerka,Khersons’ka Oblast’,UA,32.4333,46.6333,9565
920,Biltine,Wadi Fira,TD,20.9267,14.5275,11000
921,Bilwi,Caribe Norte,NI,-83.3833,14.05,33600
922,Biləsuvar,Biləsuvar,AZ,48.5428,39.4481,22800
923,Bimbo,Ombella-Mpoko,CF,18.5163,4.3313,124176
924,Bindura,Mashonaland Central,ZW,31.3333,-17.3,46275
925,Bingöl,Bingöl,TR,40.5017,38.8861,11727
926,Binnish,Idlib,SY,36.7,35.95,21848
927,Birao,Vakaga,CF,22.7833,10.2837,10178
928,Birecik,Şanlıurfa,TR,37.9769,37.025,15317
929,Birendranagar,Bherī,NP,81.6333,28.6,47914
930,Birkenfeld,Rhineland-Palatinate,DE,7.1833,49.65,6984
931,Birkirkara,Birkirkara,MT,14.4667,35.9,24356
932,Birnin Kebbi,Kebbi,NG,4.1999,12.4504,108164
933,Birnin Konni,Tahoua,NE,5.2599,13.7904,65252
934,Birobidzhan,Yevreyskaya Avtonomnaya Oblast’,RU,132.9333,48.7833,73623
935,Birāṭnagar,Kosī,NP,87.2833,26.4833,242548
936,Birštonas,Birštono,LT,24.0292,54.6056,2331
937,Birżebbuġa,Birżebbuġa,MT,14.5278,35.8267,9736
938,Biržai,Biržai,LT,24.75,56.2,10146
939,Bishkek,Bishkek,KG,74.5667,42.8667,1053900
940,Biskra,Biskra,DZ,5.7333,34.85,204661
941,Bismarck,North Dakota,US,-100.7694,46.8144,98345
942,Bissau,Bissau,GW,-15.5956,11.8592,395954
943,Bistrica ob Sotli,Bistrica ob Sotli,SI,15.6625,46.0569,235
944,Bistriţa,Bistriţa-Năsăud,RO,24.4833,47.1333,75076
945,Bitburg,Rhineland-Palatinate,DE,6.5256,49.9747,14904
946,Bitlis,Bitlis,TR,42.1167,38.4,18684
947,Bitola,Bitola,MK,21.3347,41.0319,74550
948,Biu,Borno,NG,12.19,10.6204,95005
949,Bizerte,Bizerte,TN,9.8739,37.2744,142966
950,Biên Hòa,Đồng Nai,VN,106.8221,10.9508,1104000
951,Biłgoraj,Lubelskie,PL,22.7333,50.55,27290
952,Bjelovar,Bjelovarsko-Bilogorska Županija,HR,16.8422,45.8989,40276
953,Black River,Saint Elizabeth,JM,-77.8508,18.0256,4261
954,Bladel,Noord-Brabant,NL,5.2167,51.3667,20175
955,Blagoevgrad,Blagoevgrad,BG,23.0897,42.0119,73463
956,Blagoveshchensk,Amurskaya Oblast’,RU,127.5364,50.2578,224419
957,Blantyre,Blantyre,MW,35.0058,-15.7861,1895973
958,Blaricum,Noord-Holland,NL,5.2422,52.2728,11202
959,Bled,Bled,SI,14.1167,46.3667,4929
960,Blenheim,Marlborough,NZ,173.95,-41.5167,26400
961,Blida,Blida,DZ,2.8333,36.4722,331779
962,Bloemfontein,Free State,ZA,26.2167,-29.1,256185
963,Blois,Centre-Val de Loire,FR,1.3281,47.5939,45871
964,Bludenz,Vorarlberg,AT,9.8219,47.1533,14539
965,Bluefields,Caribe Sur,NI,-83.7645,12.014,45547
966,Bo,Southern,SL,-11.74,7.9564,233684
967,Bo Phloi,Kanchanaburi,TH,99.5154,14.3284,7095
968,Boa Vista,Roraima,BR,-60.6719,2.82,326419
969,Boac,Marinduque,PH,121.8333,13.45,57283
970,Boaco,Boaco,NI,-85.6667,12.4667,317000
971,Boavita,Boyacá,CO,-72.5842,6.3308,7079
972,Bobigny,Île-de-France,FR,2.4397,48.9106,54272
973,Bobo-Dioulasso,Hauts-Bassins,BF,-4.2833,11.1833,903887
974,Bobov Dol,Kyustendil,BG,22.9979,42.3638,5176
975,Bobrynets,Kirovohrads’ka Oblast’,UA,32.1581,48.0578,10898
976,Bocas de Satinga,Nariño,CO,-78.3256,2.3469,32759
977,Bocas del Toro,Bocas del Toro,PA,-82.242,9.3403,12996
978,Bochil,Chiapas,MX,-92.8903,16.9953,34997
979,Bochnia,Małopolskie,PL,20.4333,49.9833,30075
980,Bochum,North Rhine-Westphalia,DE,7.2167,51.4833,364454
981,Bodegraven,Zuid-Holland,NL,4.7486,52.0808,17954
982,Bodrum,Muğla,TR,27.4292,37.0383,5136
983,Bodø,Nordland,NO,14.3833,67.2833,52560
984,Boekel,Noord-Brabant,NL,5.6742,51.6011,10588
985,Boende,Tshuapa,CD,20.8806,-0.2817,32091
986,Boffa,Boké,GN,-14.043,10.185,2332
987,Bogandé,Est,BF,-0.1436,12.9714,9854
988,Bogatić,Bogatić,RS,19.4833,44.8333,6488
989,Bogdanci,Bogdanci,MK,22.5728,41.2031,2951
990,Bogotá,Bogotá,CO,-74.0705,4.6126,7743955
991,Bogovinje,Bogovinje,MK,20.9133,41.9233,25
992,Bohodukhiv,Kharkivs’ka Oblast’,UA,35.5164,50.1608,15576
993,Bohorodchany,Ivano-Frankivs’ka Oblast’,UA,24.5333,48.8,8222
994,Boise,Idaho,US,-116.2312,43.6007,389280
995,Bojacá,Cundinamarca,CO,-74.3422,4.7336,8788
996,Bojnūrd,Khorāsān-e Shomālī,IR,57.3333,37.4667,199791
997,Bokhtar,Khatlon,TJ,68.7803,37.8364,75450
998,Boké,Boké,GN,-14.3,10.94,116270
999,Bol,Lac,TD,14.7147,13.4586,11700
1000,Bolama,Bolama/Bijagós,GW,-15.4742,11.5776,4819
1001,Bolesławiec,Dolnośląskie,PL,15.5667,51.2667,39412
1002,Bolgatanga,Upper East,GH,-0.8514,10.7856,66685
1003,Bolhrad,Odes’ka Oblast’,UA,28.6134,45.6855,17400
1004,Boli,Heilongjiang,CN,130.5759,45.7564,95260
1005,Bollnäs,Gävleborg,SE,16.3883,61.3484,13398
1006,Bolnisi,Kvemo Kartli,GE,44.5333,41.45,8967
1007,Bologna,Emilia-Romagna,IT,11.3428,44.4939,389261
1008,Bologoye,Tverskaya Oblast’,RU,34.0789,57.8787,21158
1009,Bolu,Bolu,TR,31.6,40.7333,21700
1010,Bolvadin,Afyonkarahisar,TR,31.05,38.7167,20139
1011,Bolzano,Trentino-Alto Adige,IT,11.35,46.5,107317
1012,Bombarral,Leiria,PT,-9.15,39.2667,13193
1013,Bonanza,Caribe Norte,NI,-84.5833,14.0167,15000
1014,Bonao,Cibao Sur,DO,-70.4,18.9333,125338
1015,Bondoukou,Zanzan,CI,-2.8,8.0304,58297
1016,Bongao,Tawi-Tawi,PH,119.7731,5.0292,116118
1017,Bongor,Mayo-Kébbi Est,TD,15.3722,10.2806,27770
1018,Bonn,North Rhine-Westphalia,DE,7.0997,50.7339,330579
1019,Bonneville,Auvergne-Rhône-Alpes,FR,6.4008,46.0789,12557
1020,Bontoc,Mountain,PH,120.9756,17.0872,24104
1021,Bonyhád,Tolna,HU,18.53,46.3,12982
1022,Bonāb,Āz̄arbāyjān-e Sharqī,IR,46.0561,37.3403,75332
1023,Boosaaso,Bari,SO,49.18,11.28,46969
1024,Bor,Bor,RS,22.1036,44.1303,34159
1025,Bor,Jonglei,SS,31.55,6.2167,315351
1026,Bor,Niğde,TR,34.5627,37.8963,14309
1027,Borabue,Maha Sarakham,TH,103.1231,16.037,5771
1028,Borba,Évora,PT,-7.45,38.8,7333
1029,Bordeaux,Nouvelle-Aquitaine,FR,-0.58,44.84,257068
1030,Bordj Bou Arreridj,Bordj Bou Arréridj,DZ,4.7667,36.0667,168346
1031,Bordj Mokhtar,Adrar,DZ,0.9542,21.3289,16437
1032,Borken,North Rhine-Westphalia,DE,6.8583,51.8439,42530
1033,Borlänge,Dalarna,SE,15.4167,60.4833,39422
1034,Borne,Overijssel,NL,6.75,52.3,23210
1035,Borongan,Eastern Samar,PH,125.4333,11.6,71961
1036,Borovnica,Borovnica,SI,14.3642,45.918,2674
1037,Boryeong,Chungnam,KR,126.6167,36.3333,101852
1038,Boryspil,Kyyivs’ka Oblast’,UA,30.95,50.35,62281
1039,Borås,Västra Götaland,SE,12.92,57.7304,65008
1040,Borāzjān,Būshehr,IR,51.2158,29.2667,110567
1041,Borūjerd,Lorestān,IR,48.7514,33.8972,234997
1042,Bosanska Krupa,"Bosnia and Herzegovina, Federation of",BA,16.15,44.8833,29659
1043,Bosanski Petrovac,"Bosnia and Herzegovina, Federation of",BA,16.3667,44.55,7946
1044,Bosconia,Cesar,CO,-73.8903,9.9761,39716
1045,Bosilovo,Bosilovo,MK,22.7278,41.4406,1069
1046,Boskoop,Zuid-Holland,NL,4.6333,52.0667,15045
1047,Bossangoa,Ouham,CF,17.45,6.4833,36478
1048,Boston,Massachusetts,US,-71.0846,42.3188,4688346
1049,Botoşani,Botoşani,RO,26.6694,47.7486,106847
1050,Bottrop,North Rhine-Westphalia,DE,6.9253,51.5232,117383
1051,Bouaflé,Sassandra-Marahoué,CI,-5.7442,6.9903,71792
1052,Bouaké,Vallée du Bandama,CI,-5.0331,7.6833,659233
1053,Bouar,Nana-Mambéré,CF,15.6,5.95,40353
1054,Bougouni,Sikasso,ML,-7.4832,11.4177,35450
1055,Bouira,Bouira,DZ,3.8925,36.3783,68545
1056,Boulogne-Billancourt,Île-de-France,FR,2.2409,48.8352,121334
1057,Boulogne-sur-Mer,Hauts-de-France,FR,1.6147,50.7264,40664
1058,Boulsa,Centre-Nord,BF,-0.5833,12.6667,17489
1059,Boumerdes,Boumerdes,DZ,3.4728,36.7594,41685
1060,Bourg-en-Bresse,Auvergne-Rhône-Alpes,FR,5.2289,46.2056,41248
1061,Bourges,Centre-Val de Loire,FR,2.3964,47.0844,64668
1062,Bovec,Bovec,SI,13.5522,46.3378,1586
1063,Boxmeer,Noord-Brabant,NL,5.9444,51.6483,29065
1064,Boxtel,Noord-Brabant,NL,5.3275,51.5911,30747
1065,Boyabat,Sinop,TR,34.7667,41.4689,9418
1066,Bozdoğan,Aydın,TR,28.3103,37.6728,6739
1067,Bozoum,Ouham-Pendé,CF,16.3783,6.3172,20665
1068,Bozyazı,Mersin,TR,32.975,36.1,15615
1069,Bozüyük,Bilecik,TR,30.0367,39.9078,13307
1070,Boğazlıyan,Yozgat,TR,35.2462,39.1929,7925
1071,Brades,Saint Peter,MS,-62.2106,16.7928,391
1072,Braga,Braga,PT,-8.42,41.5503,181494
1073,Bragado,Buenos Aires,AR,-60.5,-35.1167,33222
1074,Bragança,Bragança,PT,-6.75,41.8,35341
1075,Brake,Lower Saxony,DE,8.4833,53.3333,14965
1076,Brandenburg,Brandenburg,DE,12.5561,52.4117,72040
1077,Brandsen,Buenos Aires,AR,-58.2167,-35.1667,19877
1078,Braniewo,Warmińsko-Mazurskie,PL,19.8333,54.3833,16992
1079,Braslaw,Vitsyebskaya Voblasts’,BY,27.0397,55.6397,9390
1080,Brasília,Distrito Federal,BR,-47.8828,-15.7939,3015268
1081,Bratislava,Bratislavský,SK,17.1128,48.1447,475503
1082,Bratske,Mykolayivs’ka Oblast’,UA,31.5781,47.8636,5313
1083,Braunau am Inn,Oberösterreich,AT,13.0333,48.2583,17095
1084,Braunschweig,Lower Saxony,DE,10.5211,52.2692,248561
1085,Brazzaville,Brazzaville,CG,15.2833,-4.2667,1827000
1086,Braşov,Braşov,RO,25.6,45.65,290743
1087,Breda,Noord-Brabant,NL,4.775,51.5875,183873
1088,Bregenz,Vorarlberg,AT,9.7492,47.505,29806
1089,Bremen,Bremen,DE,8.8089,53.0769,566573
1090,Bremgarten,Aargau,CH,8.34,47.3528,7765
1091,Brescia,Lombardy,IT,10.2203,45.5389,196745
1092,Bressuire,Nouvelle-Aquitaine,FR,-0.4886,46.84,19733
1093,Brest,Brestskaya Voblasts’,BY,23.6569,52.0847,340318
1094,Brest,Bretagne,FR,-4.49,48.39,139602
1095,Breza,"Bosnia and Herzegovina, Federation of",BA,18.261,44.021,14564
1096,Brezno,Banskobystrický,SK,19.6381,48.8036,21082
1097,Brežice,Brežice,SI,15.5925,45.9044,6843
1098,Bria,Haute-Kotto,CF,21.9919,6.5369,35204
1099,Briançon,Provence-Alpes-Côte d’Azur,FR,6.635,44.8958,11084
1100,Briceni,Briceni,MD,27.085,48.3628,7314
1101,Bridgetown,Saint Michael,BB,-59.6167,13.0975,110000
1102,Brielle,Zuid-Holland,NL,4.1639,51.9042,17182
1103,Briey,Grand Est,FR,5.9394,49.2486,5674
1104,Brig-Glis,Valais,CH,7.9876,46.3159,13109
1105,Brignoles,Provence-Alpes-Côte d’Azur,FR,6.0617,43.4058,17364
1106,Brikama,Western,GM,-16.6599,13.2804,195136
1107,Brindisi,Puglia,IT,17.9458,40.6383,87141
1108,Brioude,Auvergne-Rhône-Alpes,FR,3.3842,45.2942,6681
1109,Brisbane,Queensland,AU,153.0281,-27.4678,2360241
1110,Brive-la-Gaillarde,Nouvelle-Aquitaine,FR,1.5321,45.1583,46630
1111,Brno,Jihomoravský Kraj,CZ,16.6083,49.1953,382405
1112,Brodnica,Kujawsko-Pomorskie,PL,19.4,53.25,28880
1113,Brokopondo,Brokopondo,SR,-55.02,5.0404,8340
1114,Brovary,Kyyivs’ka Oblast’,UA,30.7903,50.5114,102856
1115,Bruck an der Leitha,Niederösterreich,AT,16.779,48.0255,7887
1116,Bruck an der Mur,Steiermark,AT,15.2686,47.4106,15837
1117,Bruges,Flanders,BE,3.2242,51.2089,118284
1118,Brummen,Gelderland,NL,6.1667,52.1,20698
1119,Brunssum,Limburg,NL,5.9667,50.95,28103
1120,Brussels,Brussels-Capital Region,BE,4.3314,50.8353,1743000
1121,Bruzual,Apure,VE,-69.3316,8.0494,7370
1122,Brvenica,Brvenica,MK,20.9808,41.9672,449
1123,Bryansk,Bryanskaya Oblast’,RU,34.3667,53.25,406553
1124,Brzeg,Opolskie,PL,17.4833,50.8667,35890
1125,Brzesko,Małopolskie,PL,20.6167,49.9667,16819
1126,Brzeziny,Łódzkie,PL,19.75,51.8,12501
1127,Brzozów,Podkarpackie,PL,22.0194,49.6953,26615
1128,Brăila,Brăila,RO,27.9575,45.2692,180302
1129,Brčko,Brcko District,BA,18.8092,44.8783,39893
1130,Bua Chet,Surin,TH,103.9301,14.5326,6418
1131,Bua Yai,Nakhon Ratchasima,TH,102.4337,15.5858,14168
1132,Bubanza,Bubanza,BI,29.4,-3.0833,20031
1133,Bucak,Burdur,TR,30.595,37.4592,10094
1134,Bucaramanga,Santander,CO,-73.1161,7.1186,581130
1135,Bucha,Kyyivs’ka Oblast’,UA,30.235,50.5464,35162
1136,Bucharest,Bucureşti,RO,26.0833,44.4,1883425
1137,Bucheon,Gyeonggi,KR,126.7831,37.4989,867678
1138,Buda-Kashalyova,Homyel’skaya Voblasts’,BY,30.5667,52.7167,8850
1139,Budakeszi,Pest,HU,18.93,47.5111,15088
1140,Budapest,Budapest,HU,19.0408,47.4983,1723836
1141,Budva,Budva,ME,18.8453,42.2847,19218
1142,Buea,South-West,CM,9.2333,4.1667,131325
1143,Buenaventura,Valle del Cauca,CO,-77.0267,3.8772,423927
1144,Buenavista,Córdoba,CO,-75.4817,8.2233,22711
1145,Bueng Kan,Bueng Kan,TH,103.6552,18.3669,4494
1146,Bueng Khong Long,Bueng Kan,TH,104.0484,17.9684,9777
1147,Buenos Aires,"Buenos Aires, Ciudad Autónoma de",AR,-58.3819,-34.5997,16216000
1148,Buenos Aires,Cauca,CO,-76.6411,3.0164,34631
1149,Buesaco,Nariño,CO,-77.1564,1.3847,26229
1150,Bugalagrande,Valle del Cauca,CO,-76.1575,4.2075,20970
1151,Bugojno,"Bosnia and Herzegovina, Federation of",BA,17.4508,44.0572,34559
1152,Buguey,Cagayan,PH,121.8331,18.2882,32148
1153,Buharkent,Aydın,TR,28.7425,37.9646,5795
1154,Buje,Istarska Županija,HR,13.65,45.4,5182
1155,Bujumbura,Bujumbura Mairie,BI,29.3611,-3.3825,658859
1156,Bukavu,Sud-Kivu,CD,28.8428,-2.4908,436779
1157,Bukhara,Buxoro,UZ,64.4286,39.7747,280187
1158,Bukoba,Kagera,TZ,31.8167,-1.3333,100504
1159,Bulancak,Giresun,TR,38.2314,40.9381,9343
1160,Bulanık,Muş,TR,42.2667,39.095,6186
1161,Bulawayo,Bulawayo,ZW,28.5667,-20.1667,653337
1162,Buldan,Denizli,TR,28.8306,38.045,11681
1163,Bulgan,Bulgan,MN,103.5347,48.8125,12323
1164,Bungoma,Bungoma,KE,34.5666,0.5666,55857
1165,Bunia,Ituri,CD,30.24,1.5604,96764
1166,Buraydah,Al Qaşīm,SA,43.9667,26.3333,467410
1167,Burdur,Burdur,TR,30.2833,37.7167,22489
1168,Burg,Saxony-Anhalt,DE,11.855,52.2725,22478
1169,Burgas,Burgas,BG,27.4702,42.503,210720
1170,Burgos,Castille-Leon,ES,-3.6997,42.3408,174051
1171,Burhaniye,Balıkesir,TR,26.9786,39.5108,11908
1172,Buri Ram,Buriram,TH,103.1022,14.9942,28613
1173,Bursa,Bursa,TR,29.0667,40.1833,211644
1174,Bururi,Bururi,BI,29.6167,-3.9333,4478
1175,Burutu,Delta,NG,5.5167,5.35,209666
1176,Busan,Busan,KR,129.0403,35.1,3453198
1177,Busia,Busia,KE,34.1108,0.4608,30777
1178,Busia,Busia,UG,34.09,0.4669,47100
1179,Bussum,Noord-Holland,NL,5.1611,52.2733,32410
1180,Buta,Bas-Uélé,CD,24.74,2.82,45677
1181,Butha-Buthe,Butha-Buthe,LS,28.2333,-28.7833,10000
1182,Butuan,Butuan,PH,125.5288,8.9534,372910
1183,Butwāl,Lumbinī,NP,83.45,27.7,118462
1184,Buurhakaba,Bay,SO,44.0833,2.7837,31267
1185,Buynaksk,Dagestan,RU,47.1167,42.8167,65080
1186,Buzău,Buzău,RO,26.8167,45.1517,115494
1187,Buôn Ma Thuột,Đắk Lắk,VN,108.05,12.6667,340000
1188,Buşrá ash Shām,Dar‘ā,SY,36.4833,32.5167,19683
1189,Bu’aale,Jubbada Dhexe,SO,42.5833,1.0833,1490
1190,Byalynichy,Mahilyowskaya Voblasts’,BY,29.7096,53.9956,9913
1191,Byaroza,Brestskaya Voblasts’,BY,24.9825,52.5333,28619
1192,Bydgoszcz,Kujawsko-Pomorskie,PL,18.0,53.1167,346739
1193,Bytom,Śląskie,PL,18.923,50.347,171515
1194,Bytów,Pomorskie,PL,17.5,54.1667,16888
1195,Bytča,Žilinský,SK,18.5581,49.2228,11362
1196,Byumba,Northern Province,RW,30.0694,-1.5794,34544
1197,Bácsalmás,Bács-Kiskun,HU,19.3261,46.1239,6453
1198,Bánovce nad Bebravou,Nitriansky,SK,18.2581,48.7186,18350
1199,Bátonyterenye,Nógrád,HU,19.8286,47.9892,11345
1200,Béchar,Béchar,DZ,-2.2,31.6333,165627
1201,Béja,Béja,TN,9.1817,36.7256,109299
1202,Békés,Békés,HU,21.125,46.7769,18322
1203,Békéscsaba,Békés,HU,21.0833,46.6833,58002
1204,Béni Mellal,Béni Mellal-Khénifra,MA,-6.3608,32.3394,192676
1205,Béthune,Hauts-de-France,FR,2.6408,50.5303,25193
1206,Béziers,Occitanie,FR,3.219,43.3476,77599
1207,Böblingen,Baden-Württemberg,DE,9.0,48.6833,50121
1208,Bø,Telemark,NO,9.0314,59.4572,6101
1209,Bünyan,Kayseri,TR,35.8592,38.8486,8467
1210,Büyükçekmece,İstanbul,TR,28.5775,41.02,22394
1211,Bābol,Māzandarān,IR,52.6833,36.55,250217
1212,Bāfq,Yazd,IR,55.4028,31.6053,45453
1213,Bāft,Kermān,IR,56.6022,29.2331,34517
1214,Bājil,Al Ḩudaydah,YE,43.285,15.0583,46005
1215,Bāmyān,Bāmyān,AF,67.8167,34.8167,61863
1216,Bāneh,Kordestān,IR,45.8853,35.9975,110218
1217,Bāniyās,Ţarţūs,SY,35.9403,35.1822,43151
1218,Bălţi,Bălţi,MD,27.9289,47.7617,102457
1219,Będzin,Śląskie,PL,19.1333,50.325,56354
1220,Bījār,Kordestān,IR,47.5937,35.8741,53871
1221,Bīrjand,Khorāsān-e Jonūbī,IR,59.2211,32.8664,178020
1222,Būkān,Āz̄arbāyjān-e Gharbī,IR,46.2089,36.5211,193501
1223,Bərdə,Bərdə,AZ,47.1186,40.3831,38500
1224,Bạc Liêu,Bạc Liêu,VN,105.7167,9.2833,225000
1225,Bắc Giang,Bắc Giang,VN,106.1947,21.2731,53728
1226,Bắc Kạn,Bắc Kạn,VN,105.8377,22.1514,29227
1227,Bắc Ninh,Bắc Ninh,VN,106.0763,21.1861,520000
1228,Bến Tre,Bến Tre,VN,106.3833,10.2333,59442
1229,Caacupé,Cordillera,PY,-57.14,-25.387,21696
1230,Caazapá,Caazapá,PY,-56.38,-26.2,5504
1231,Cabadbaran,Agusan del Norte,PH,125.5346,9.1228,80354
1232,Cabaiguán,Sancti Spíritus,CU,-79.4953,22.0839,32000
1233,Cabarroguis,Quirino,PH,121.5,16.5833,33533
1234,Cabañas,Zacapa,GT,-89.8,14.9333,14817
1235,Cabeceiras de Basto,Braga,PT,-8.0,41.5167,16710
1236,Cabimas,Zulia,VE,-71.4333,10.4,351735
1237,Cabinda,Cabinda,AO,12.2,-5.5667,550000
1238,Cabricán,Quetzaltenango,GT,-91.65,15.0768,24474
1239,Cabudare,Lara,VE,-69.2633,10.0331,70578
1240,Cacheu,Cacheu,GW,-16.165,12.278,5674
1241,Cadaval,Lisboa,PT,-9.1,39.25,14525
1242,Cadereyta,Querétaro,MX,-99.8167,20.7,13347
1243,Caen,Normandie,FR,-0.37,49.18,105512
1244,Cafayate,Salta,AR,-65.98,-26.07,11785
1245,Cagayan de Oro,Cagayan de Oro,PH,124.65,8.4833,728402
1246,Cagliari,Sardegna,IT,9.1167,39.2167,154106
1247,Cagua,Aragua,VE,-67.4611,10.1875,122571
1248,Cahors,Occitanie,FR,1.4406,44.4475,19907
1249,Cahul,Cahul,MD,28.1944,45.9075,30018
1250,Caibarién,Villa Clara,CU,-79.4722,22.5158,38479
1251,Caicedonia,Valle del Cauca,CO,-75.8281,4.3347,28825
1252,Caimito,Artemisa,CU,-82.5964,22.9575,36813
1253,Caimito,Sucre,CO,-75.1161,8.7894,12077
1254,Cairo,Al Qāhirah,EG,31.2358,30.0444,19787000
1255,Cajamarca,Cajamarca,PE,-78.5106,-7.1644,201329
1256,Cajibío,Cauca,CO,-76.5731,2.6233,38703
1257,Cajicá,Cundinamarca,CO,-74.025,4.9167,44721
1258,Cajolá,Quetzaltenango,GT,-91.616,14.9252,16751
1259,Calabar,Cross River,NG,8.325,4.95,461796
1260,Calabozo,Guárico,VE,-67.4283,8.9219,131989
1261,Calais,Hauts-de-France,FR,1.8564,50.9481,72929
1262,Calama,Antofagasta,CL,-68.9272,-22.4624,157575
1263,Calamar,Bolívar,CO,-74.9158,10.25,24573
1264,Calapan,Oriental Mindoro,PH,121.2,13.3667,145786
1265,Caldas,Antioquia,CO,-75.6361,6.0886,81381
1266,Caldas da Rainha,Leiria,PT,-9.1363,39.4069,51729
1267,Caldono,Cauca,CO,-76.4828,2.7969,34132
1268,Calheta de São Miguel,São Miguel,CV,-23.5917,15.1875,4123
1269,Cali,Valle del Cauca,CO,-76.5197,3.44,2471474
1270,Calicut,Kerala,IN,75.7667,11.25,431560
1271,Calkiní,Campeche,MX,-90.05,20.3667,14934
1272,Callao,Callao,PE,-77.1333,-12.0611,1129854
1273,Caloocan City,Caloocan,PH,120.9667,14.65,1661584
1274,Calpulalpan,Hidalgo,MX,-98.5683,19.5869,33263
1275,Caltanissetta,Sicilia,IT,14.0624,37.4915,62317
1276,Calw,Baden-Württemberg,DE,8.7375,48.7144,23590
1277,Cam Ranh,Khánh Hòa,VN,109.1369,11.9136,125311
1278,Camagüey,Camagüey,CU,-77.9186,21.3786,321992
1279,Camargo,Chihuahua,MX,-105.167,27.667,40221
1280,Cambrai,Hauts-de-France,FR,3.2356,50.1767,32501
1281,Campana,Buenos Aires,AR,-58.9167,-34.1667,86860
1282,Campeche,Campeche,MX,-90.5306,19.85,220389
1283,Campo Grande,Mato Grosso do Sul,BR,-54.6222,-20.4686,906092
1284,Campo Maior,Portalegre,PT,-7.0667,39.0167,8456
1285,Campo de la Cruz,Atlántico,CO,-74.8814,10.3778,18354
1286,Campoalegre,Huila,CO,-75.3256,2.6867,34923
1287,Campobasso,Molise,IT,14.6684,41.561,49262
1288,Canalete,Córdoba,CO,-76.2411,8.79,23520
1289,Cananea,Sonora,MX,-110.3006,30.9819,38113
1290,Canatlán,Durango,MX,-104.78,24.52,10342
1291,Canberra,Australian Capital Territory,AU,149.1269,-35.2931,381488
1292,Cancún,Quintana Roo,MX,-86.8475,21.1606,888797
1293,Candelaria,Artemisa,CU,-82.9581,22.7439,19523
1294,Candelaria,Atlántico,CO,-74.8806,10.4592,11635
1295,Candelaria,Campeche,MX,-91.0461,18.1844,9812
1296,Candelaria,Quezon,PH,121.4233,13.9311,137881
1297,Canelones,Canelones,UY,-56.2778,-34.5228,19865
1298,Canillo,Canillo,AD,1.6009,42.5664,4103
1299,Canillá,Quiché,GT,-90.8481,15.1671,9073
1300,Cankuzo,Cankuzo,BI,30.5528,-3.2194,3624
1301,Cantanhede,Coimbra,PT,-8.5941,40.3462,36595
1302,Cantaura,Anzoátegui,VE,-64.3564,9.3005,89552
1303,Cantel,Quetzaltenango,GT,-91.4555,14.8112,32221
1304,Cantemir,Cantemir,MD,28.2008,46.2781,3429
1305,Cao Bằng,Cao Bằng,VN,106.25,22.6731,41112
1306,Cao Lãnh,Đồng Tháp,VN,105.6331,10.4603,149837
1307,Cap-Haïtien,Nord,HT,-72.2,19.75,190289
1308,Cape Coast,Central,GH,-1.25,5.1,143015
1309,Cape Town,Western Cape,ZA,18.425,-33.925,433688
1310,Capelle aan den IJssel,Zuid-Holland,NL,4.5782,51.9357,66514
1311,Capellen,Capellen,LU,5.9897,49.6444,1986
1312,Capulhuac,México,MX,-99.4667,19.2,30838
1313,Caracas,Distrito Capital,VE,-66.9333,10.5,1943901
1314,Caramanta,Antioquia,CO,-75.6442,5.5467,5410
1315,Carbonia,Sardegna,IT,8.522,39.1668,28265
1316,Carcassonne,Occitanie,FR,2.35,43.21,46513
1317,Carepa,Antioquia,CO,-76.6553,7.7581,47932
1318,Carhué,Buenos Aires,AR,-62.7333,-37.1667,7190
1319,Caripito,Monagas,VE,-63.1048,10.111,64955
1320,Carlos A. Carrillo,Veracruz,MX,-95.75,18.3667,24565
1321,Carlos Manuel de Céspedes,Camagüey,CU,-78.2775,21.5767,224488
1322,Carlow,Carlow,IE,-6.9317,52.8306,24272
1323,Carmen de Areco,Buenos Aires,AR,-59.8167,-34.3833,14692
1324,Carora,Lara,VE,-70.0783,10.1692,112600
1325,Carpentras,Provence-Alpes-Côte d’Azur,FR,5.0489,44.0558,28798
1326,Carrazeda de Anciães,Bragança,PT,-7.3,41.25,6373
1327,Carson City,Nevada,US,-119.7474,39.1512,58756
1328,Cartagena,Bolívar,CO,-75.5253,10.4236,1036412
1329,Cartagena del Chairá,Caquetá,CO,-74.8467,1.3361,35473
1330,Cartago,Cartago,CR,-83.9167,9.8667,22775
1331,Cartago,Valle del Cauca,CO,-75.91,4.75,134827
1332,Cartaxo,Santarém,PT,-8.7833,39.15,24462
1333,Carúpano,Sucre,VE,-63.2403,10.6722,173877
1334,Casablanca,Casablanca-Settat,MA,-7.62,33.5992,4370000
1335,Cascais,Lisboa,PT,-9.4206,38.6969,206479
1336,Caseros,Buenos Aires,AR,-58.5333,-34.6167,95785
1337,Caserta,Campania,IT,14.3333,41.0667,75561
1338,Casilda,Santa Fe,AR,-61.1681,-33.0442,35058
1339,Castaños,Coahuila de Zaragoza,MX,-101.4167,26.7833,27314
1340,Castelli,Chaco,AR,-60.6167,-25.95,9421
1341,Castellón de la Plana,Valencia,ES,-0.0331,39.9831,172589
1342,Castelo Branco,Castelo Branco,PT,-7.4931,39.8228,56109
1343,Castelsarrasin,Occitanie,FR,1.1069,44.04,13934
1344,Castillo de Teayo,Veracruz,MX,-97.6333,20.75,20037
1345,Castres,Occitanie,FR,2.25,43.6,41795
1346,Castricum,Noord-Holland,NL,4.6583,52.5517,35772
1347,Castries,Castries,LC,-60.9833,14.0167,70000
1348,Castro,Los Lagos,CL,-73.7643,-42.4824,33417
1349,Castro Daire,Viseu,PT,-7.9333,40.9,15339
1350,Castro Marim,Faro,PT,-7.45,37.2167,6747
1351,Castro Verde,Beja,PT,-8.0819,37.6976,7276
1352,Catamarca,Catamarca,AR,-65.7792,-28.4686,159139
1353,Catania,Sicilia,IT,15.0873,37.5027,311584
1354,Catanzaro,Calabria,IT,16.5875,38.91,89718
1355,Catarina,Masaya,NI,-86.0751,11.9119,7524
1356,Catarman,Northern Samar,PH,124.65,12.45,97879
1357,Catbalogan,Samar,PH,124.8833,11.7833,106440
1358,Catemaco,Veracruz,MX,-95.1167,18.4167,27615
1359,Catia La Mar,Vargas,VE,-67.0303,10.6038,661897
1360,Catió,Tombali,GW,-15.25,11.2833,26999
1361,Cauquenes,Maule,CL,-72.3154,-35.9671,31362
1362,Caxito,Bengo,AO,13.6642,-8.5785,77276
1363,Cazones de Herrera,Veracruz,MX,-97.3,20.7,23675
1364,Cañada de Gómez,Santa Fe,AR,-61.4,-32.8167,29205
1365,Cebu City,Cebu,PH,123.902,10.293,964169
1366,Cegléd,Pest,HU,19.7981,47.1772,35334
1367,Celaya,Guanajuato,MX,-100.8122,20.5222,494304
1368,Celestún,Yucatán,MX,-90.4,20.8583,8389
1369,Celje,Celje,SI,15.2641,46.2291,37872
1370,Celldömölk,Vas,HU,17.1525,47.2575,10646
1371,Celle,Lower Saxony,DE,10.0825,52.6256,69602
1372,Celorico da Beira,Guarda,PT,-7.4,40.6333,7693
1373,Celorico de Basto,Braga,PT,-8.0022,41.3869,20098
1374,Cencheng,Guangxi,CN,111.0186,22.9297,772113
1375,Centar Župa,Centar Župa,MK,20.5578,41.4775,466
1376,Cereté,Córdoba,CO,-75.7911,8.8867,83917
1377,Cergy,Île-de-France,FR,2.0631,49.0361,66322
1378,Cerknica,Cerknica,SI,14.3581,45.7964,4018
1379,Cerrillos,Salta,AR,-65.4833,-24.9,11498
1380,Cerritos,San Luis Potosí,MX,-100.2783,22.4275,14804
1381,Cerro Azul,Veracruz,MX,-97.7331,21.2,23573
1382,Cerro de Pasco,Pasco,PE,-76.2625,-10.6864,58899
1383,Cestica,Varaždinska Županija,HR,16.12,46.37,5678
1384,Cestos City,River Cess,LR,-9.5817,5.4697,2578
1385,Cetinje,Cetinje,ME,18.9219,42.3933,13991
1386,Ceyhan,Adana,TR,35.8139,37.0283,41124
1387,Ceylanpınar,Şanlıurfa,TR,40.0489,36.8461,25781
1388,Cha-am,Phetchaburi,TH,99.9683,12.7992,35581
1389,Chacabuco,Buenos Aires,AR,-60.49,-34.65,34587
1390,Chachapoyas,Amazonas,PE,-77.85,-6.2167,32026
1391,Chachoengsao,Chachoengsao,TH,101.0703,13.6903,39570
1392,Chaek,Naryn,KG,74.51,41.93,7009
1393,Chaguanas,Chaguanas,TT,-61.4075,10.5144,83489
1394,Chaguaramas,Guárico,VE,-66.2525,9.3385,15000
1395,Chai Nat,Chai Nat,TH,100.1283,15.1872,12541
1396,Chai Prakan,Chiang Mai,TH,99.1403,19.7322,16090
1397,Chaigoubu,Hebei,CN,114.4157,40.6687,73028
1398,Chaitén,Los Lagos,CL,-72.7088,-42.9193,5071
1399,Chaiwan,Udon Thani,TH,103.2281,17.285,8297
1400,Chaiya,Surat Thani,TH,99.2728,9.3778,7736
1401,Chaiyaphum,Chaiyaphum,TH,102.0311,15.8056,36923
1402,Chaiyo,Ang Thong,TH,100.4702,14.6666,12710
1403,Chajul,Quiché,GT,-91.0347,15.4872,31780
1404,Chake Chake,Pemba South,TZ,39.77,-5.2395,49959
1405,Chalatenango,Chalatenango,SV,-88.9333,14.0333,29271
1406,Chalco,México,MX,-98.8975,19.2647,310130
1407,Chalkída,Stereá Elláda,GR,23.595,38.4625,59125
1408,Chalma,Veracruz,MX,-98.4,21.2167,13479
1409,Chalon-sur-Saône,Bourgogne-Franche-Comté,FR,4.8528,46.7806,44810
1410,Chaltyr,Rostovskaya Oblast’,RU,39.5,47.2833,15334
1411,Chalándri,Attikí,GR,23.8,38.0167,74192
1412,Cham,Bavaria,DE,12.6658,49.2183,16907
1413,Chambas,Ciego de Ávila,CU,-78.9133,22.1967,41000
1414,Chambéry,Auvergne-Rhône-Alpes,FR,5.9118,45.57,58833
1415,Chamical,La Rioja,AR,-66.3133,-30.3592,8989
1416,Champerico,Retalhuleu,GT,-91.914,14.293,35000
1417,Champotón,Campeche,MX,-90.7167,19.35,26636
1418,Chamusca,Santarém,PT,-8.4833,39.35,10120
1419,Chanal,Chiapas,MX,-92.2214,16.6489,12181
1420,Chandīgarh,Chandīgarh,IN,76.7911,30.7353,1026459
1421,Changchun,Jilin,CN,125.2,43.9,7674439
1422,Changde,Hunan,CN,111.6839,29.0397,5827200
1423,Changhua,Changhua,TW,120.5333,24.0667,750000
1424,Changling,Jilin,CN,123.99,44.27,55841
1425,Changsha,Guangdong,CN,112.6877,22.3762,717700
1426,Changsha,Hunan,CN,112.9709,28.1987,8154700
1427,Changting,Fujian,CN,116.3167,25.867,87458
1428,Changwon,Gyeongnam,KR,128.6811,35.2281,1046054
1429,Changzhi,Shanxi,CN,113.097,36.1953,3334565
1430,Changzhou,Jiangsu,CN,119.9692,31.8122,5278121
1431,Chang’an,Hunan,CN,113.448,29.4761,537500
1432,Chaniá,Kríti,GR,24.0167,35.5167,53910
1433,Chanthaburi,Chanthaburi,TH,102.1039,12.6086,23835
1434,Chaozhou,Guangdong,CN,116.63,23.67,2656600
1435,Chapa de Mota,México,MX,-99.5269,19.8144,21746
1436,Chapala,Jalisco,MX,-103.1897,20.2933,21596
1437,Chaparral,Tolima,CO,-75.4847,3.7236,47397
1438,Chapultenango,Chiapas,MX,-93.1333,17.3333,7644
1439,Charallave,Miranda,VE,-66.8622,10.2431,117707
1440,Charalá,Santander,CO,-73.1467,6.2875,10211
1441,Charata,Chaco,AR,-61.1881,-27.2144,18297
1442,Charleroi,Wallonia,BE,4.4442,50.4167,201816
1443,Charleston,West Virginia,US,-81.6323,38.3484,138706
1444,Charleville-Mézières,Grand Est,FR,4.7161,49.7719,46391
1445,Charlottetown,Prince Edward Island,CA,-63.1347,46.2403,42602
1446,Charoen Sin,Sakon Nakhon,TH,103.5422,17.5837,6869
1447,Charsadda,Khyber Pakhtunkhwa,PK,71.7308,34.1453,105414
1448,Chartres,Centre-Val de Loire,FR,1.484,48.456,38426
1449,Chascomús,Buenos Aires,AR,-58.0089,-35.575,21054
1450,Chattogram,Chittagong,BD,91.8325,22.335,2581643
1451,Chaumont,Grand Est,FR,5.1389,48.1117,21990
1452,Chaves,Vila Real,PT,-7.4707,41.7399,41243
1453,Chavinda,Michoacán de Ocampo,MX,-102.45,20.0167,10258
1454,Chaïdári,Attikí,GR,23.65,38.0167,45642
1455,Chañaral,Atacama,CL,-70.6224,-26.3479,13543
1456,Cheboksary,Chuvashiya,RU,47.25,56.1333,489498
1457,Chechelnyk,Vinnyts’ka Oblast’,UA,29.3622,48.2122,5002
1458,Chelyabinsk,Chelyabinskaya Oblast’,RU,61.4,55.15,1202371
1459,Chemnitz,Saxony,DE,12.9167,50.8333,243487
1460,Chengdu,Sichuan,CN,104.0633,30.66,11920000
1461,Chengguan,Henan,CN,113.6976,35.5256,740435
1462,Chengjiao,Henan,CN,114.0593,35.4043,495744
1463,Chengjiao Chengguanzhen,Gansu,CN,104.0306,34.4362,67826
1464,Chengxiang,Jiangsu,CN,121.1043,31.4515,709500
1465,Chennai,Tamil Nādu,IN,80.275,13.0825,11564000
1466,Chenzhou,Hunan,CN,113.0267,25.7989,4744500
1467,Cheongju,Chungbuk,KR,127.4897,36.6372,833276
1468,Chepes,La Rioja,AR,-66.6,-31.35,6020
1469,Cherbourg,Normandie,FR,-1.6,49.6333,60991
1470,Cherkasy,Cherkas’ka Oblast’,UA,32.0597,49.4444,276360
1471,Cherkessk,Karachayevo-Cherkesiya,RU,42.0575,44.2222,122395
1472,Chernihiv,Chernihivs’ka Oblast’,UA,31.2947,51.4939,294522
1473,Chernihivka,Zaporiz’ka Oblast’,UA,36.2023,47.1942,5813
1474,Chernivtsi,Chernivets’ka Oblast’,UA,25.9344,48.2908,266550
1475,Chernyakhovsk,Kaliningradskaya Oblast’,RU,21.8167,54.6333,35888
1476,Chervonohrad,L’vivs’ka Oblast’,UA,24.2275,50.3822,82395
1477,Cherykaw,Mahilyowskaya Voblasts’,BY,31.3667,53.5667,7910
1478,Cherán,Michoacán de Ocampo,MX,-101.95,19.6833,19081
1479,Chetumal,Quintana Roo,MX,-88.3053,18.5036,169028
1480,Cheyenne,Wyoming,US,-104.79,41.1351,79484
1481,Chełm,Lubelskie,PL,23.4833,51.1333,61588
1482,Chełmno,Kujawsko-Pomorskie,PL,18.4261,53.3492,20428
1483,Chiang Kham,Phayao,TH,100.3,19.5233,6748
1484,Chiang Klang,Nan,TH,100.8739,19.293,9721
1485,Chiang Mai,Chiang Mai,TH,98.9833,18.7889,132634
1486,Chiang Rai,Chiang Rai,TH,99.8275,19.9094,70610
1487,Chiapa de Corzo,Chiapas,MX,-93.0169,16.7083,45077
1488,Chiatura,Imereti,GE,43.2819,42.2903,12803
1489,Chiayi,Chiayi,TW,120.4497,23.48,251938
1490,Chiba,Chiba,JP,140.1064,35.6073,981738
1491,Chichicastenango,Quiché,GT,-91.1105,14.9442,107193
1492,Chichigalpa,Chinandega,NI,-87.0333,12.5667,46185
1493,Chichihualco,Guerrero,MX,-99.674,17.655,10079
1494,Chiclayo,Lambayeque,PE,-79.8366,-6.763,552508
1495,Chicoloapan,México,MX,-98.9,19.4167,175053
1496,Chicomuselo,Chiapas,MX,-92.2833,15.7442,7083
1497,Chiconcuac,México,MX,-98.9,19.55,19656
1498,Chiconquiaco,Veracruz,MX,-96.8167,19.75,14394
1499,Chieti,Abruzzo,IT,14.1674,42.3511,50770
1500,Chifeng,Inner Mongolia,CN,118.9223,42.2663,4341245
1501,Chigorodó,Antioquia,CO,-76.6814,7.6697,84183
1502,Chihuahua,Chihuahua,MX,-106.0889,28.6353,878062
1503,Chilapa de Álvarez,Guerrero,MX,-99.1778,17.5944,120790
1504,Chilcuautla,Hidalgo,MX,-99.2333,20.3333,15284
1505,Chilecito,La Rioja,AR,-67.5,-29.1667,33724
1506,Chillán,Ñuble,CL,-72.1033,-36.6067,164270
1507,Chilpancingo,Guerrero,MX,-99.5,17.55,182387
1508,Chimalhuacán,México,MX,-98.9,19.4167,614453
1509,Chimaltenango,Chimaltenango,GT,-90.8208,14.6622,43900
1510,Chimboy Shahri,Qoraqalpog‘iston,UZ,59.7708,42.9311,36917
1511,Chimichagua,Cesar,CO,-73.8133,9.2578,30303
1512,Chimoio,Manica,MZ,33.45,-19.1167,238976
1513,Chinampa de Gorostiza,Veracruz,MX,-97.7333,21.3667,16741
1514,Chinandega,Chinandega,NI,-87.1297,12.6242,121793
1515,Chinautla,Guatemala,GT,-90.5,14.7029,77071
1516,Chinggil,Xinjiang,CN,90.3794,46.666,16098
1517,Chinhoyi,Mashonaland West,ZW,30.2,-17.35,56794
1518,Chiniot,Punjab,PK,72.9833,31.7167,477781
1519,Chinique,Quiché,GT,-91.0269,15.0411,8009
1520,Chinon,Centre-Val de Loire,FR,0.2428,47.1669,8145
1521,Chinsali,Muchinga,ZM,32.06,-10.5496,14015
1522,Chinú,Córdoba,CO,-75.3981,9.1097,50313
1523,Chipata,Eastern,ZM,32.6453,-13.6386,98416
1524,Chiquilistlán,Jalisco,MX,-103.8617,20.0896,6102
1525,Chiquimula,Chiquimula,GT,-89.5333,14.7833,79815
1526,Chiquimulilla,Santa Rosa,GT,-90.3822,14.0858,12842
1527,Chiquinquirá,Boyacá,CO,-73.8164,5.6175,85274
1528,Chiradzulu,Chiradzulu,MW,35.1407,-15.6746,1580
1529,Chisec,Alta Verapaz,GT,-90.3217,15.8125,69325
1530,Chisinau,Chişinău,MD,28.8353,47.0228,639000
1531,Chita,Boyacá,CO,-72.4725,6.1878,9542
1532,Chita,Zabaykal’skiy Kray,RU,113.5,52.0333,347088
1533,Chitaraque,Boyacá,CO,-73.4469,6.0283,5687
1534,Chitipa,Chitipa,MW,33.2697,-9.7024,13412
1535,Chitral,Khyber Pakhtunkhwa,PK,71.7889,35.8511,31100
1536,Chitré,Herrera,PA,-80.4333,7.9667,46191
1537,Chivilcoy,Buenos Aires,AR,-60.0167,-34.9,54514
1538,Chivolo,Magdalena,CO,-74.6214,10.0264,15960
1539,Chizhou,Anhui,CN,117.4849,30.6583,1402518
1540,Chlef,Chlef,DZ,1.3317,36.1647,155134
1541,Chocamán,Veracruz,MX,-97.0328,19.0122,21102
1542,Chocontá,Cundinamarca,CO,-73.6825,5.1467,25257
1543,Chodzież,Wielkopolskie,PL,16.9122,52.9901,19100
1544,Choele Choel,Río Negro,AR,-65.6542,-39.2858,10146
1545,Choix,Sinaloa,MX,-108.3219,26.7061,9306
1546,Chojnice,Pomorskie,PL,17.557,53.6955,39937
1547,Chok Chai,Nakhon Ratchasima,TH,102.1652,14.7284,12568
1548,Cholet,Pays de la Loire,FR,-0.8783,47.06,54186
1549,Cholpon-Ata,Ysyk-Köl,KG,77.0833,42.65,11520
1550,Chom Thong,Chiang Mai,TH,98.6758,18.418,9777
1551,Choma,Southern,ZM,26.97,-16.8095,46746
1552,Chon Buri,Chon Buri,TH,100.985,13.3611,29961
1553,Chongqing,Chongqing,CN,106.5069,29.55,8261000
1554,Chongshan,Hainan,CN,109.5117,18.7787,107100
1555,Chongzuo,Guangxi,CN,107.3667,22.4167,2099400
1556,Chonnabot,Khon Kaen,TH,102.6193,16.084,8145
1557,Chornomorske,"Krym, Avtonomna Respublika",UA,32.705,45.5031,11039
1558,Chortkiv,Ternopil’s’ka Oblast’,UA,25.8,49.0167,28393
1559,Chortoq,Namangan,UZ,71.8153,41.0689,35615
1560,Chorzów,Śląskie,PL,18.95,50.3,106846
1561,Chos Malal,Neuquén,AR,-70.2667,-37.3833,13092
1562,Choszczno,Zachodniopomorskie,PL,15.4,53.1667,15109
1563,Choybalsan,Dornod,MN,114.5228,48.0706,38150
1564,Christchurch,Canterbury,NZ,172.6365,-43.5309,383200
1565,Chrysoúpoli,Anatolikí Makedonía kai Thráki,GR,24.7,40.9833,8885
1566,Chrzanów,Małopolskie,PL,19.4,50.1333,36575
1567,Chuarrancho,Guatemala,GT,-90.5167,14.8167,7091
1568,Chugqênsumdo,Qinghai,CN,101.4866,33.4352,6834
1569,Chuhuiv,Kharkivs’ka Oblast’,UA,36.6756,49.8353,33144
1570,Chuimatan,Gansu,CN,102.8771,35.7166,26044
1571,Chum Phae,Khon Kaen,TH,102.1104,16.5431,31597
1572,Chumbicha,Catamarca,AR,-66.2333,-28.8666,2572
1573,Chumphon,Chumphon,TH,99.18,10.4939,33516
1574,Chumsaeng,Nakhon Sawan,TH,100.311,15.898,7942
1575,Chuncheon,Gangwon,KR,127.7342,37.8747,281596
1576,Chuqung,Qinghai,CN,97.0637,33.3743,10659
1577,Chur,Graubünden,CH,9.5297,46.8521,35038
1578,Churumuco de Morelos,Michoacán de Ocampo,MX,-101.6333,18.6167,15455
1579,Chyhyryn,Cherkas’ka Oblast’,UA,32.6667,49.0833,8658
1580,Châlons-en-Champagne,Grand Est,FR,4.365,48.9575,44246
1581,Château-Gontier,Pays de la Loire,FR,-0.7028,47.8286,11805
1582,Château-Thierry,Hauts-de-France,FR,3.4031,49.0464,15351
1583,Châteaubriant,Pays de la Loire,FR,-1.3761,47.7169,12011
1584,Châteaudun,Centre-Val de Loire,FR,1.3378,48.0708,13078
1585,Châteaulin,Bretagne,FR,-4.09,48.1967,5189
1586,Châteauroux,Centre-Val de Loire,FR,1.6911,46.8103,43442
1587,Châtellerault,Nouvelle-Aquitaine,FR,0.5461,46.8178,31733
1588,Chía,Cundinamarca,CO,-74.0528,4.8633,97896
1589,Chíos,Voreío Aigaío,GR,26.1375,38.3725,26850
1590,Chíquiza,Boyacá,CO,-73.4889,5.61,5484
1591,Chābahār,Sīstān va Balūchestān,IR,60.6236,25.2836,106739
1592,Chādegān,Eşfahān,IR,50.6286,32.7683,7037
1593,Chārīkār,Parwān,AF,69.1679,35.0183,53676
1594,Ch’ŏngjin,Hambuk,KP,129.7831,41.8,667929
1595,Cidade Velha,Ribeira Grande de Santiago,CV,-23.6042,14.9167,2148
1596,Ciechanów,Mazowieckie,PL,20.6106,52.8817,42965
1597,Ciego de Ávila,Ciego de Ávila,CU,-78.7631,21.8481,143449
1598,Cienfuegos,Cienfuegos,CU,-80.4364,22.1456,164924
1599,Cieszyn,Śląskie,PL,18.6333,49.75,34513
1600,Cihanbeyli,Konya,TR,32.9281,38.6581,6739
1601,Cilacap,Jawa Tengah,ID,109.017,-7.7167,1174964
1602,Cimitarra,Santander,CO,-73.95,6.3133,49593
1603,Cimişlia,Cimişlia,MD,28.7842,46.52,11997
1604,Cinfães,Viseu,PT,-8.0833,41.0667,20427
1605,Circasia,Quindío,CO,-75.6347,4.62,28162
1606,Ciro Redondo,Ciego de Ávila,CU,-78.7031,22.0189,28370
1607,Cisneros,Antioquia,CO,-75.0886,6.5383,11555
1608,Citlaltépec,Veracruz,MX,-97.8784,21.3366,12109
1609,City of Isabela,Basilan,PH,121.9667,6.7,130379
1610,City of Parañaque,Parañaque,PH,121.0167,14.4667,689992
1611,Ciudad Acuña,Coahuila de Zaragoza,MX,-100.9317,29.3242,160225
1612,Ciudad Altamirano,Guerrero,MX,-100.6667,18.3583,24533
1613,Ciudad Apodaca,Nuevo León,MX,-100.1833,25.7833,523370
1614,Ciudad Ayala,Morelos,MX,-98.9833,18.7667,6777
1615,Ciudad Benito Juárez,Nuevo León,MX,-100.0833,25.65,260683
1616,Ciudad Bolívar,Antioquia,CO,-76.0203,5.8494,27458
1617,Ciudad Bolívar,Bolívar,VE,-63.55,8.1167,567953
1618,Ciudad Cerralvo,Nuevo León,MX,-99.6147,26.0899,7169
1619,Ciudad Choluteca,Choluteca,HN,-87.2167,13.3167,120000
1620,Ciudad Constitución,Baja California Sur,MX,-111.6703,25.0322,43805
1621,Ciudad Cuauhtémoc,Veracruz,MX,-97.8333,22.1833,57646
1622,Ciudad Darío,Matagalpa,NI,-86.1167,12.7333,41014
1623,Ciudad General Escobedo,Nuevo León,MX,-100.1583,25.7933,299364
1624,Ciudad Guadalupe Victoria,Durango,MX,-104.1225,24.4497,16506
1625,Ciudad Guayana,Bolívar,VE,-62.6517,8.3596,751331
1626,Ciudad Guzmán,Jalisco,MX,-103.4667,19.7,97750
1627,Ciudad Hidalgo,Chiapas,MX,-92.1497,14.6792,14606
1628,Ciudad Hidalgo,Michoacán de Ocampo,MX,-100.5536,19.6917,122619
1629,Ciudad Lerdo,Durango,MX,-103.5167,25.55,79669
1630,Ciudad López Mateos,México,MX,-99.2833,19.55,489937
1631,Ciudad Madero,Tamaulipas,MX,-97.8333,22.25,197216
1632,Ciudad Mante,Tamaulipas,MX,-98.95,22.7333,84787
1633,Ciudad Manuel Doblado,Guanajuato,MX,-101.9533,20.7303,37145
1634,Ciudad Melchor Múzquiz,Coahuila de Zaragoza,MX,-101.5164,27.8775,38992
1635,Ciudad Melchor de Mencos,Petén,GT,-89.15,17.0667,20273
1636,Ciudad Miguel Alemán,Tamaulipas,MX,-99.0253,26.4003,19998
1637,Ciudad Obregón,Sonora,MX,-109.9389,27.4939,329404
1638,Ciudad Ojeda,Zulia,VE,-71.3,10.2,122124
1639,Ciudad Real,Castille-La Mancha,ES,-3.9167,38.9833,75104
1640,Ciudad Río Bravo,Tamaulipas,MX,-98.0889,25.9861,101481
1641,Ciudad Sabinas Hidalgo,Nuevo León,MX,-100.1833,26.5,32047
1642,Ciudad Santa Catarina,Nuevo León,MX,-100.45,25.6833,306322
1643,Ciudad Serdán,Puebla,MX,-97.45,18.9833,46778
1644,Ciudad Tecún Umán,San Marcos,GT,-92.1333,14.6833,33426
1645,Ciudad Tula,Tamaulipas,MX,-99.72,23.0,10043
1646,Ciudad Valles,San Luis Potosí,MX,-99.0167,21.9833,177022
1647,Ciudad Victoria,Tamaulipas,MX,-99.1333,23.7333,305155
1648,Ciudad Vieja,Sacatepéquez,GT,-90.7667,14.5233,30565
1649,Ciudad de Atlixco,Puebla,MX,-98.45,18.9,86690
1650,Ciudad de Huajuapam de León,Oaxaca,MX,-97.7764,17.8097,45321
1651,Ciudad de Huitzuco,Guerrero,MX,-99.35,18.3,16025
1652,Ciudad del Carmen,Campeche,MX,-91.8333,18.6333,169466
1653,Ciudad del Este,Alto Paraná,PY,-54.6167,-25.5167,320782
1654,Cizre,Şırnak,TR,42.1848,37.3302,50023
1655,Ciénaga,Magdalena,CO,-74.2467,11.0067,129414
1656,Ciénaga de Oro,Córdoba,CO,-75.6211,8.875,64226
1657,Ciénega de Flores,Nuevo León,MX,-100.1833,25.95,14268
1658,Claveria,Masbate,PH,123.2457,12.9035,42142
1659,Clermont,Hauts-de-France,FR,2.4125,49.3789,10183
1660,Clermont-Ferrand,Auvergne-Rhône-Alpes,FR,3.0824,45.7831,146734
1661,Clervaux,Clervaux,LU,6.0314,50.0547,1468
1662,Cloppenburg,Lower Saxony,DE,8.0439,52.8478,34913
1663,Cluj-Napoca,Cluj,RO,23.5594,46.78,324576
1664,Coacoatzintla,Veracruz,MX,-96.9333,19.65,10482
1665,Coalcomán de Vázquez Pallares,Michoacán de Ocampo,MX,-103.1667,18.7833,18444
1666,Coapilla,Chiapas,MX,-93.1667,17.1333,9210
1667,Coatepec,Veracruz,MX,-96.9586,19.4553,92127
1668,Coatepec Harinas,México,MX,-99.7167,18.9,36269
1669,Coatepeque,Quetzaltenango,GT,-91.8667,14.7,300000
1670,Coatzacoalcos,Veracruz,MX,-94.4333,18.15,319187
1671,Cobija,Pando,BO,-68.7537,-11.0183,46267
1672,Coburg,Bavaria,DE,10.9579,50.2585,41249
1673,Cobán,Alta Verapaz,GT,-90.3667,15.4833,228664
1674,Cochabamba,Cochabamba,BO,-66.157,-17.3935,632013
1675,Cochem,Rhineland-Palatinate,DE,7.1667,50.1469,5312
1676,Cochrane,Aysén,CL,-72.5732,-47.2539,2789
1677,Cocotitlán,México,MX,-98.85,19.2167,12142
1678,Coesfeld,North Rhine-Westphalia,DE,7.1675,51.9458,36217
1679,Coevorden,Drenthe,NL,6.75,52.6667,35483
1680,Cognac,Nouvelle-Aquitaine,FR,-0.3292,45.6958,18628
1681,Cogua,Cundinamarca,CO,-73.9794,5.0619,24092
1682,Coimbra,Coimbra,PT,-8.4289,40.2111,143396
1683,Cojutepeque,Cuscatlán,SV,-88.9333,13.7167,48411
1684,Colima,Colima,MX,-103.7247,19.2433,150673
1685,Colina,Región Metropolitana,CL,-70.6833,-33.2,146207
1686,Colipa,Veracruz,MX,-96.7,19.9167,5718
1687,Colmar,Grand Est,FR,7.3556,48.0817,68703
1688,Colombo,Western,LK,79.8333,6.9167,752993
1689,Colonia del Sacramento,Colonia,UY,-57.8442,-34.4714,26231
1690,Colosó,Sucre,CO,-75.3525,9.4942,6013
1691,Colotenango,Huehuetenango,GT,-91.7156,15.4054,25900
1692,Columbia,South Carolina,US,-80.9037,34.0376,560041
1693,Columbus,Ohio,US,-82.985,39.9862,1562009
1694,Colón,Colón,PA,-79.875,9.365,204000
1695,Colón,Entre Ríos,AR,-58.1419,-32.2241,24835
1696,Colón,Matanzas,CU,-80.9067,22.7225,72000
1697,Comala,Colima,MX,-103.7603,19.3208,9442
1698,Comandante Fontana,Formosa,AR,-59.6833,-25.3333,4277
1699,Comapa,Jutiapa,GT,-89.7497,14.1114,23715
1700,Comapa,Veracruz,MX,-96.8666,19.1667,19859
1701,Comayagua,Comayagua,HN,-87.65,14.46,144785
1702,Comendador,El Valle,DO,-71.707,18.876,43894
1703,Comitancillo,San Marcos,GT,-91.7486,15.0906,59357
1704,Comitán,Chiapas,MX,-92.1342,16.2511,170000
1705,Commercy,Grand Est,FR,5.5917,48.7642,5399
1706,Como,Lombardy,IT,9.0861,45.8103,83320
1707,Comodoro Rivadavia,Chubut,AR,-67.5,-45.8667,730266
1708,Compiègne,Hauts-de-France,FR,2.8231,49.4149,40542
1709,Compostela,Nayarit,MX,-104.9,21.2389,17573
1710,Comrat,Găgăuzia,MD,28.6572,46.3003,20113
1711,Conakry,Conakry,GN,-13.6773,9.538,1667864
1712,Concepción,Biobío,CL,-73.0503,-36.8271,217537
1713,Concepción,Concepción,PY,-57.4414,-23.4025,45068
1714,Concepción Tutuapa,San Marcos,GT,-91.7833,15.2833,59063
1715,Concepción de Buenos Aires,Jalisco,MX,-103.15,19.8667,6088
1716,Concepción del Uruguay,Entre Ríos,AR,-58.2333,-32.4833,72528
1717,Concord,New Hampshire,US,-71.5595,43.2305,43627
1718,Concordia,Antioquia,CO,-75.9075,6.0456,20271
1719,Concordia,Entre Ríos,AR,-58.0169,-31.3922,149450
1720,Concordia,Sinaloa,MX,-106.0675,23.2883,8328
1721,Condega,Estelí,NI,-86.3985,13.365,30000
1722,Condeixa-a-Nova,Coimbra,PT,-8.5,40.1167,17078
1723,Condom,Occitanie,FR,0.3725,43.9575,6508
1724,Condoto,Chocó,CO,-76.65,5.0917,14660
1725,Conguaco,Jutiapa,GT,-90.0336,14.047,15295
1726,Conkal,Yucatán,MX,-89.5208,21.0733,7173
1727,Consolación del Sur,Pinar del Río,CU,-83.5172,22.5083,87500
1728,Constantine,Constantine,DZ,6.6147,36.365,448374
1729,Constanţa,Constanţa,RO,28.6383,44.1733,283872
1730,Contamana,Loreto,PE,-75.0086,-7.3493,18921
1731,Contla,Tlaxcala,MX,-98.1667,19.3333,27610
1732,Contramaestre,Santiago de Cuba,CU,-76.2506,20.3,106002
1733,Copacabana,Antioquia,CO,-75.5103,6.3486,73574
1734,Copenhagen,Hovedstaden,DK,12.5615,55.6805,1085000
1735,Copiapó,Atacama,CL,-70.3323,-27.3665,150804
1736,Coquimatlán,Colima,MX,-103.8086,19.2038,19385
1737,Coquimbo,Coquimbo,CL,-71.338,-29.9532,204068
1738,Corella,Bohol,PH,123.9167,9.6833,9479
1739,Corinto,Cauca,CO,-76.2594,3.1739,33489
1740,Corinto,Chinandega,NI,-87.1833,12.4833,22000
1741,Cork,Cork,IE,-8.4731,51.9,208669
1742,Coro,Falcón,VE,-69.6816,11.395,284266
1743,Coromoro,Santander,CO,-73.0406,6.295,7659
1744,Coronda,Santa Fe,AR,-60.9167,-31.9667,18115
1745,Coronel Dorrego,Buenos Aires,AR,-61.2667,-38.7,11510
1746,Coronel Oviedo,Caaguazú,PY,-56.44,-25.45,88101
1747,Coronel Suárez,Buenos Aires,AR,-61.9333,-37.4667,23621
1748,Coroneo,Guanajuato,MX,-100.3333,20.1333,10347
1749,Corozal,Corozal,BZ,-88.4,18.4,8800
1750,Corozal,Sucre,CO,-75.2933,9.3169,70853
1751,Corrientes,Corrientes,AR,-58.8167,-27.4833,352646
1752,Cortazar,Guanajuato,MX,-100.933,20.483,61658
1753,Coruche,Santarém,PT,-8.5333,38.95,19944
1754,Cosalá,Sinaloa,MX,-106.6917,24.4125,6577
1755,Cosamaloapan,Veracruz,MX,-95.8,18.3667,57147
1756,Cosautlán,Veracruz,MX,-96.9833,19.3333,16353
1757,Cosenza,Calabria,IT,16.25,39.3,67239
1758,Cosne sur Loire,Bourgogne-Franche-Comté,FR,2.925,47.4103,9741
1759,Cospicua,Bormla,MT,14.5222,35.8822,5395
1760,Cotabato,Cotabato,PH,124.25,7.2167,325079
1761,Cotija de la Paz,México,MX,-102.7047,19.81,19018
1762,Cotonou,Littoral,BJ,2.518,6.402,762000
1763,Cottbus,Brandenburg,DE,14.3342,51.7606,98693
1764,Cotuí,Cibao Sur,DO,-70.15,19.06,76554
1765,Coutances,Normandie,FR,-1.4453,49.0453,8454
1766,Couva,Couva/Tabaquite/Talparo,TT,-61.45,10.4167,48858
1767,Coveñas,Sucre,CO,-75.68,9.4014,11270
1768,Covilhã,Castelo Branco,PT,-7.5,40.2833,51797
1769,Coyaima,Tolima,CO,-75.1939,3.7975,28443
1770,Coyhaique,Aysén,CL,-72.0685,-45.5712,61210
1771,Coyotepec,Morelos,MX,-99.2056,19.7756,41810
1772,Coyuca de Catalán,Guerrero,MX,-100.6992,18.3256,42069
1773,Cozumel,Quintana Roo,MX,-86.9493,20.5104,77236
1774,Craiova,Dolj,RO,23.8167,44.3333,269506
1775,Cremona,Lombardy,IT,10.0333,45.1333,72077
1776,Crikvenica,Primorsko-Goranska Županija,HR,14.7,45.1833,11122
1777,Criuleni,Criuleni,MD,29.1614,47.2167,6708
1778,Crna Trava,Crna Trava,RS,22.299,42.8101,434
1779,Crotone,Calabria,IT,17.1167,39.0833,63941
1780,Cruz Grande,Guerrero,MX,-99.1333,16.7333,20175
1781,Cruz del Eje,Córdoba,AR,-64.8,-30.7333,52172
1782,Créteil,Île-de-France,FR,2.4628,48.7911,92265
1783,Csongrád,Csongrád,HU,20.1403,46.7111,16027
1784,Csorna,Győr-Moson-Sopron,HU,17.25,47.6167,9799
1785,Cuapiaxtla de Madero,Puebla,MX,-97.8167,18.9167,10101
1786,Cuatro Ciénegas de Carranza,Coahuila de Zaragoza,MX,-102.0664,26.9861,10395
1787,Cuauhtémoc,Chihuahua,MX,-106.8667,28.405,168482
1788,Cuauhtémoc,Colima,MX,-103.6028,19.3281,7513
1789,Cuautepec de Hinojosa,Hidalgo,MX,-98.4333,20.15,45527
1790,Cuautitlán,Jalisco,MX,-104.3,19.4333,18138
1791,Cuautitlán,México,MX,-99.1833,19.6833,110385
1792,Cuautitlán Izcalli,México,MX,-99.25,19.65,140059
1793,Cuautla,Morelos,MX,-98.95,18.8167,194786
1794,Cubará,Boyacá,CO,-72.1081,7.0008,6725
1795,Cubulco,Baja Verapaz,GT,-90.6306,15.1083,60112
1796,Cuenca,Azuay,EC,-79.0045,-2.8974,329928
1797,Cuenca,Castille-La Mancha,ES,-2.15,40.0667,53988
1798,Cuencamé de Ceniceros,Durango,MX,-103.7,24.8667,8876
1799,Cuernavaca,Morelos,MX,-99.2342,18.9186,338650
1800,Cuerámaro,Guanajuato,MX,-101.6739,20.6258,27308
1801,Cuetzalan,Puebla,MX,-97.5167,20.0333,47983
1802,Cuiabá,Mato Grosso,BR,-56.0969,-15.5958,585367
1803,Cuichapa,Veracruz,MX,-96.8667,18.7667,12238
1804,Cuihua,Yunnan,CN,103.8906,27.7527,42262
1805,Cuijk,Noord-Brabant,NL,5.8794,51.7269,24931
1806,Cuilapa,Santa Rosa,GT,-90.2992,14.2783,30951
1807,Cuilapan de Guerrero,Oaxaca,MX,-96.7817,16.9972,21597
1808,Cuito,Bié,AO,16.9333,-12.3833,114000
1809,Culemborg,Gelderland,NL,5.2333,51.95,28555
1810,Culfa,Culfa,AZ,45.6308,38.9558,12500
1811,Culiacán,Sinaloa,MX,-107.3939,24.8069,808416
1812,Cumaná,Sucre,VE,-64.1667,10.45,374706
1813,Cumaribo,Vichada,CO,-69.7956,4.4461,43138
1814,Cumbal,Nariño,CO,-77.7908,0.9078,40492
1815,Cuneo,Piedmont,IT,7.55,44.3833,56281
1816,Cuquío,Jalisco,MX,-103.0239,20.9275,17980
1817,Curicó,Maule,CL,-71.2394,-34.9854,136954
1818,Curitiba,Paraná,BR,-49.2719,-25.4297,1879355
1819,Curití,Santander,CO,-73.0681,6.6044,12065
1820,Curumaní,Cesar,CO,-73.5425,9.1997,23018
1821,Cusco,Cusco,PE,-71.9833,-13.5222,428450
1822,Cuxhaven,Lower Saxony,DE,8.7,53.8667,48356
1823,Cuyotenango,Suchitepéquez,GT,-91.5723,14.5421,50860
1824,Częstochowa,Śląskie,PL,19.1222,50.8096,223322
1825,Człuchów,Pomorskie,PL,17.3667,53.65,13869
1826,Cà Mau,Cà Mau,VN,105.15,9.1833,315270
1827,Cáceres,Antioquia,CO,-75.3503,7.5794,42112
1828,Cáceres,Extremadura,ES,-6.3667,39.4833,95418
1829,Cádiz,Andalusia,ES,-6.2975,36.535,114244
1830,Cárdenas,Matanzas,CU,-81.2036,23.0428,86700
1831,Cárdenas,San Luis Potosí,MX,-99.6522,22.0103,15331
1832,Céret,Occitanie,FR,2.7514,42.4881,7821
1833,Córdoba,Andalusia,ES,-4.7796,37.8845,322071
1834,Córdoba,Bolívar,CO,-74.8272,9.5867,12266
1835,Córdoba,Córdoba,AR,-64.1833,-31.4167,1329604
1836,Córdoba,Nariño,CO,-77.5178,0.8533,14006
1837,Córdoba,Quindío,CO,-75.6878,4.3911,5249
1838,Córdoba,Veracruz,MX,-96.9347,18.8942,218153
1839,Cúa,Miranda,VE,-66.8833,10.1667,214823
1840,Cúcuta,Norte de Santander,CO,-72.5047,7.9075,750000
1841,Călăraşi,Călăraşi,MD,28.3081,47.2544,10808
1842,Călăraşi,Călăraşi,RO,27.3333,44.2,65181
1843,Căuşeni,Căuşeni,MD,29.4139,46.6442,15939
1844,Cēsis,Cēsu Novads,LV,25.2747,57.3131,14815
1845,Cəbrayıl,Cəbrayıl,AZ,47.0261,39.4,6070
1846,Cəlilabad,Cəlilabad,AZ,48.4958,39.2042,25846
1847,Cần Thơ,Cần Thơ,VN,105.7833,10.0333,1237300
1848,Cẩm Phả,Quảng Ninh,VN,107.2726,21.0065,156000
1849,Dabancheng,Xinjiang,CN,88.306,43.3552,5540
1850,Dabas,Pest,HU,19.3167,47.1833,17481
1851,Dabeiba,Antioquia,CO,-76.2611,7.0014,22954
1852,Dabola,Faranah,GN,-11.1167,10.75,38617
1853,Dabou,Lagunes,CI,-4.3767,5.3256,72913
1854,Dachau,Bavaria,DE,11.4342,48.2603,47400
1855,Dadu,Sindh,PK,67.775,26.7319,146179
1856,Dadukou,Sichuan,CN,101.7149,26.5849,1214121
1857,Daegu,Daegu,KR,128.6,35.8667,2461002
1858,Daejeon,Daejeon,KR,127.385,36.351,1475221
1859,Daet,Camarines Norte,PH,122.95,14.1167,111700
1860,Dagua,Valle del Cauca,CO,-76.6917,3.6575,36891
1861,Dagupan City,Dagupan,PH,120.334,16.043,174302
1862,Dahuaishu,Shanxi,CN,111.6743,36.2601,151037
1863,Dahūk,Dahūk,IQ,42.9833,36.85,330600
1864,Daiyue,Shanxi,CN,112.8056,39.5284,35894
1865,Dajabón,Cibao Noroeste,DO,-71.71,19.5667,28071
1866,Dakar,Dakar,SN,-17.4572,14.7319,1146053
1867,Dalaba,Mamou,GN,-12.272,10.656,6349
1868,Dalaguete,Cebu,PH,123.5349,9.7612,74596
1869,Dalanzadgad,Ömnögovĭ,MN,104.4258,43.57,19396
1870,Dalfsen,Overijssel,NL,6.2592,52.5031,28499
1871,Dali,Shaanxi,CN,109.9378,34.7953,109696
1872,Daloa,Sassandra-Marahoué,CI,-6.45,6.89,255168
1873,Damanhūr,Al Buḩayrah,EG,30.4667,31.05,244043
1874,Damascus,Dimashq,SY,36.2919,33.5131,1754000
1875,Damaturu,Yobe,NG,11.9786,11.7803,255895
1876,Damietta,Dumyāţ,EG,31.8214,31.4167,206664
1877,Damnoen Saduak,Ratchaburi,TH,99.9545,13.5177,7399
1878,Damān,Damān and Diu,IN,72.834,20.4169,39737
1879,Damāvand,Tehrān,IR,52.065,35.7178,48380
1880,Dan Khun Thot,Nakhon Ratchasima,TH,101.7667,15.2099,6432
1881,Dangriga,Stann Creek,BZ,-88.2167,16.9667,9096
1882,Dar es Salaam,Dar es Salaam,TZ,39.2833,-6.8,7461000
1883,Darda,Osječko-Baranjska Županija,HR,18.6925,45.6261,5323
1884,Darhan,Darhan-Uul,MN,105.9228,49.4867,74738
1885,Darkūsh,Idlib,SY,36.3931,35.9925,5295
1886,Darmstadt,Hesse,DE,8.65,49.8667,159207
1887,Darnah,Darnah,LY,22.6391,32.7648,127974
1888,Daru,Western,PG,143.2,-9.0833,12879
1889,Daruvar,Bjelovarsko-Bilogorska Županija,HR,17.2167,45.6,9815
1890,Darwin,Northern Territory,AU,130.8411,-12.4381,136828
1891,Dar‘ā,Dar‘ā,SY,36.105,32.625,146481
1892,Dashiqiao,Liaoning,CN,122.5021,40.6328,704891
1893,Daugavpils,Daugavpils,LV,26.5161,55.8714,80627
1894,Dauis,Bohol,PH,123.8658,9.6253,52492
1895,Daun,Rhineland-Palatinate,DE,6.8319,50.1986,7974
1896,Davao,Davao,PH,125.6,7.0667,1776949
1897,David,Chiriquí,PA,-82.4333,8.4333,144858
1898,Davos,Graubünden,CH,9.8398,46.8091,10862
1899,Dawei,Taninthayi,MM,98.1867,14.0367,139900
1900,Dax,Nouvelle-Aquitaine,FR,-1.05,43.71,20762
1901,Dayr az Zawr,Dayr az Zawr,SY,40.15,35.3333,271800
1902,Dayr Ḩāfir,Ḩalab,SY,37.704,36.1592,35409
1903,Dazhou,Sichuan,CN,107.4947,31.2152,5468097
1904,Daşkəsən,Daşkəsən,AZ,46.0828,40.5181,10700
1905,Daşoguz,Daşoguz,TM,59.9831,41.8167,227184
1906,Debar,Debar,MK,20.5272,41.525,14561
1907,Debesy,Udmurtiya,RU,53.8167,57.65,5778
1908,Debrecen,Hajdú-Bihar,HU,21.6392,47.53,200974
1909,Dedoplists’q’aro,K’akheti,GE,46.1045,41.4652,5940
1910,Dedza,Dedza,MW,34.3333,-14.3667,15608
1911,Deggendorf,Bavaria,DE,12.9644,48.8353,33585
1912,Degollado,Jalisco,MX,-102.15,20.4667,21226
1913,Dehra Dūn,Uttarakhand,IN,78.029,30.318,578420
1914,Dehāqān,Eşfahān,IR,51.6478,31.94,16899
1915,Delft,Zuid-Holland,NL,4.3594,52.0119,100011
1916,Delfzijl,Groningen,NL,6.9167,53.3333,24716
1917,Delhi,Delhi,IN,77.2167,28.6667,31870000
1918,Delicias,Chihuahua,MX,-105.4717,28.1931,150506
1919,Delmenhorst,Lower Saxony,DE,8.6317,53.0506,77607
1920,Delémont,Jura,CH,7.3472,47.3653,12682
1921,Delčevo,Delčevo,MK,22.7747,41.9661,3033
1922,Demir Hisar,Demir Hisar,MK,21.2031,41.2208,543
1923,Demir Kapija,Demir Kapija,MK,22.2422,41.4114,3275
1924,Demre,Antalya,TR,29.9978,36.255,13793
1925,Den Chai,Phrae,TH,100.0519,17.9835,11542
1926,Den Helder,Noord-Holland,NL,4.7589,52.9583,55604
1927,Dendermonde,Flanders,BE,4.1,51.0167,45673
1928,Dengtalu,Henan,CN,114.3481,36.0819,887000
1929,Denizli,Denizli,TR,29.0878,37.7731,64331
1930,Denpasar,Bali,ID,115.2167,-8.6667,834881
1931,Denver,Colorado,US,-104.8759,39.7621,2876625
1932,Dera Ghazi Khan,Punjab,PK,70.6333,30.05,399064
1933,Dera Ismail Khan,Khyber Pakhtunkhwa,PK,70.9167,31.8167,109686
1934,Derbent,Dagestan,RU,48.2958,42.0692,123720
1935,Derecske,Hajdú-Bihar,HU,21.5718,47.3537,8403
1936,Derik,Mardin,TR,40.2689,37.3644,6684
1937,Derventa,"Srpska, Republika",BA,17.91,44.98,12680
1938,Des Moines,Iowa,US,-93.6105,41.5725,473957
1939,Dessau-Roßlau,Saxony-Anhalt,DE,12.2333,51.8333,81237
1940,Det Udom,Ubon Ratchathani,TH,105.0784,14.906,14264
1941,Detmold,North Rhine-Westphalia,DE,8.8833,51.9378,74388
1942,Detva,Banskobystrický,SK,19.4208,48.5572,14751
1943,Deurne,Noord-Brabant,NL,5.7947,51.4639,32362
1944,Deutschlandsberg,Steiermark,AT,15.215,46.8161,11663
1945,Develi,Kayseri,TR,35.4925,38.3886,13411
1946,Deventer,Overijssel,NL,6.2,52.25,99166
1947,Devin,Smolyan,BG,24.3967,41.7432,6129
1948,Deyang,Sichuan,CN,104.395,31.1289,3877000
1949,Dezfūl,Khūzestān,IR,48.4033,32.3878,264709
1950,Dezhou,Shandong,CN,116.3105,37.4513,5568235
1951,Deán Funes,Córdoba,AR,-64.35,-30.4333,21518
1952,Deçan,Deçan,XK,20.2833,42.5333,3803
1953,Dhaka,Dhaka,BD,90.3944,23.7289,16839000
1954,Dhamār,Dhamār,YE,44.4017,14.55,160114
1955,Dhuusamarreeb,Galguduud,SO,46.3875,5.5375,447
1956,Dianga,Gansu,CN,103.2074,34.0587,15993
1957,Diapaga,Est,BF,1.7833,12.0667,26013
1958,Dibulla,La Guajira,CO,-73.3089,11.2725,37854
1959,Didymóteicho,Anatolikí Makedonía kai Thráki,GR,26.5,41.35,9263
1960,Diekirch,Diekirch,LU,6.1558,49.8678,7047
1961,Diemen,Noord-Holland,NL,4.9625,52.3439,29196
1962,Diepholz,Lower Saxony,DE,8.3711,52.6072,16882
1963,Dieppe,Normandie,FR,1.08,49.92,28561
1964,Diffa,Diffa,NE,12.6089,13.3171,30988
1965,Differdange,Esch-sur-Alzette,LU,5.8914,49.5242,15455
1966,Digne-les-Bains,Provence-Alpes-Côte d’Azur,FR,6.2356,44.0925,16333
1967,Digos,Davao del Sur,PH,125.35,6.75,188376
1968,Dijon,Bourgogne-Franche-Comté,FR,5.0167,47.3167,156854
1969,Dikhil,Dikhil,DJ,42.3667,11.1086,35000
1970,Dikili,İzmir,TR,26.8902,39.071,5805
1971,Diksmuide,Flanders,BE,2.8667,51.0333,16739
1972,Dili,Díli,TL,125.5783,-8.5536,222323
1973,Dillingen,Bavaria,DE,10.4667,48.5667,18978
1974,Dimbokro,Lacs,CI,-4.71,6.6505,67349
1975,Dinan,Bretagne,FR,-2.0503,48.4556,14281
1976,Dinant,Wallonia,BE,4.9136,50.2564,13544
1977,Dingcheng,Hainan,CN,110.3637,19.6819,86367
1978,Dingli,Dingli,MT,14.3814,35.8603,3608
1979,Dingolfing,Bavaria,DE,12.5,48.6333,19839
1980,Dinguiraye,Faranah,GN,-10.726,11.299,6062
1981,Dingxi,Gansu,CN,104.6263,35.5806,2698624
1982,Diourbel,Diourbel,SN,-16.2314,14.655,100445
1983,Dipolog,Zamboanga del Norte,PH,123.3333,8.5667,138141
1984,Dire Dawa,Dirē Dawa,ET,41.8667,9.5833,277000
1985,Diriamba,Carazo,NI,-86.2333,11.85,57512
1986,Dispur,Assam,IN,91.77,26.15,16140
1987,Divo,Gôh-Djiboua,CI,-5.3572,5.8372,179455
1988,Divriği,Sivas,TR,38.1136,39.3711,9160
1989,Diyarbakır,Diyarbakır,TR,40.2367,37.9108,102653
1990,Diébougou,Sud-Ouest,BF,-3.25,10.9667,12732
1991,Djambala,Plateaux,CG,14.75,-2.55,9651
1992,Djanet,Illizi,DZ,9.4853,24.555,14655
1993,Djelfa,Djelfa,DZ,3.25,34.6667,265833
1994,Djenné,Mopti,ML,-4.55,13.9,32944
1995,Djibo,Sahel,BF,-1.6279,14.1012,61456
1996,Djibouti,Djibouti,DJ,43.1481,11.595,562000
1997,Djougou,Donga,BJ,1.68,9.7004,202810
1998,Dnipro,Dnipropetrovs’ka Oblast’,UA,35.04,48.4675,980948
1999,Doba,Logone Oriental,TD,16.85,8.65,29597
2000,Dobele,Dobeles Novads,LV,23.2811,56.6258,8731
2001,Doboj,"Srpska, Republika",BA,18.1333,44.7333,68514
2002,Dobrich,Dobrich,BG,27.8333,43.5667,90419
2003,Dobrovelychkivka,Kirovohrads’ka Oblast’,UA,31.1667,48.35,5763
2004,Dobrush,Homyel’skaya Voblasts’,BY,31.3167,52.4167,18311
2005,Doctor Mora,Guanajuato,MX,-100.3192,21.1425,23324
2006,Dodoma,Dodoma,TZ,35.746,-6.1835,410956
2007,Doesburg,Gelderland,NL,6.1333,52.0167,11148
2008,Doetinchem,Gelderland,NL,6.2833,51.9667,57555
2009,Doha,Ad Dawḩah,QA,51.5333,25.3,1186023
2010,Dok Kham Tai,Phayao,TH,99.9926,19.162,13450
2011,Dokkum,Fryslân,NL,5.9989,53.3253,12365
2012,Dole,Bourgogne-Franche-Comté,FR,5.4906,47.0931,23770
2013,Dolisie,Niari,CG,12.6731,-4.1961,103894
2014,Dolneni,Dolneni,MK,21.4536,41.4264,375
2015,Dolný Kubín,Žilinský,SK,19.2992,49.2117,18905
2016,Dolores,Buenos Aires,AR,-57.6792,-36.3132,25940
2017,Dolores,Petén,GT,-89.4158,16.5142,39783
2018,Dolores Hidalgo Cuna de la Independencia Nacional,Guanajuato,MX,-100.9369,21.1516,67101
2019,Dolyna,Ivano-Frankivs’ka Oblast’,UA,24.0108,48.9703,20691
2020,Dolynska,Kirovohrads’ka Oblast’,UA,32.7648,48.1111,19287
2021,Domat/Ems,Graubünden,CH,9.4545,46.8198,8037
